{"type": "FeatureCollection", "features": [{"type": "Feature", "geometry": {"type": "Point", "coordinates": [-96.2951936, 37.8223962]}, "properties": {"Place_Name": "Greenwood County Historical Society", "City": "Eureka", "Rating": 5.0, "Total_Ratings": 2, "Type": "museum, tourist_attraction, point_of_interest, establishment"}}, {"type": "Feature", "geometry": {"type": "Point", "coordinates": [-96.4235637, 38.0295627]}, "properties": {"Place_Name": "Teter Rock", "City": "Eureka", "Rating": 4.8, "Total_Ratings": 173, "Type": "point_of_interest, establishment"}}, {"type": "Feature", "geometry": {"type": "Point", "coordinates": [-96.6073646, 37.6652129]}, "properties": {"Place_Name": "Historic Frisco Railroad Bridge", "City": "Keighley", "Rating": 5.0, "Total_Ratings": 2, "Type": "point_of_interest, establishment"}}, {"type": "Feature", "geometry": {"type": "Point", "coordinates": [-95.749326, 38.194431]}, "properties": {"Place_Name": "Coffey County Historical Museum", "City": "Burlington", "Rating": 4.6, "Total_Ratings": 41, "Type": "museum, tourist_attraction, point_of_interest, establishment"}}, {"type": "Feature", "geometry": {"type": "Point", "coordinates": [-95.9577755, 38.308111]}, "properties": {"Place_Name": "Hartford Calaboose", "City": "Hartford", "Rating": 5.0, "Total_Ratings": 2, "Type": "point_of_interest, establishment"}}, {"type": "Feature", "geometry": {"type": "Point", "coordinates": [-95.9561293, 37.5822417]}, "properties": {"Place_Name": "Covered Rail Bridge New Albany KS", "City": "Fredonia", "Rating": 5.0, "Total_Ratings": 4, "Type": "point_of_interest, establishment"}}, {"type": "Feature", "geometry": {"type": "Point", "coordinates": [-96.1582711, 38.1681548]}, "properties": {"Place_Name": "Higgin?\u00c7\u00d6s Ranch", "City": "Madison", "Rating": 5.0, "Total_Ratings": 1, "Type": "point_of_interest, establishment"}}, {"type": "Feature", "geometry": {"type": "Point", "coordinates": [-95.6651992, 37.5228121]}, "properties": {"Place_Name": "Altoona Mill Falls", "City": "Altoona", "Rating": 4.5, "Total_Ratings": 37, "Type": "tourist_attraction, point_of_interest, establishment"}}, {"type": "Feature", "geometry": {"type": "Point", "coordinates": [-96.5966225, 38.1193389]}, "properties": {"Place_Name": "Historical Marker", "City": "Cassoday", "Rating": 4.5, "Total_Ratings": 6, "Type": "point_of_interest, establishment"}}, {"type": "Feature", "geometry": {"type": "Point", "coordinates": [-95.8491375, 37.5146161]}, "properties": {"Place_Name": "Old Mill Dam", "City": "Fredonia", "Rating": 4.6, "Total_Ratings": 42, "Type": "tourist_attraction, point_of_interest, establishment"}}, {"type": "Feature", "geometry": {"type": "Point", "coordinates": [-95.7024621, 37.8595821]}, "properties": {"Place_Name": "Kalida Castle Cave", "City": "Yates Center", "Rating": 4.2, "Total_Ratings": 5, "Type": "tourist_attraction, point_of_interest, establishment"}}, {"type": "Feature", "geometry": {"type": "Point", "coordinates": [-96.5799591, 38.094572]}, "properties": {"Place_Name": "Bluestem Pasture Region", "City": "Matfield Green", "Rating": 5.0, "Total_Ratings": 2, "Type": "point_of_interest, establishment"}}, {"type": "Feature", "geometry": {"type": "Point", "coordinates": [-96.38035, 37.690857]}, "properties": {"Place_Name": "North Branch Otter Creek Bridge 1908", "City": "Piedmont", "Rating": 5.0, "Total_Ratings": 5, "Type": "point_of_interest, establishment"}}, {"type": "Feature", "geometry": {"type": "Point", "coordinates": [-95.8262966, 37.5343815]}, "properties": {"Place_Name": "Wilson County Historical Society", "City": "Fredonia", "Rating": 0.0, "Total_Ratings": 0, "Type": "museum, library, point_of_interest, establishment"}}, {"type": "Feature", "geometry": {"type": "Point", "coordinates": [-96.586703, 38.23591]}, "properties": {"Place_Name": "Knute Rockne Memorial", "City": "Matfield Green", "Rating": 0.0, "Total_Ratings": 0, "Type": "tourist_attraction, point_of_interest, establishment"}}, {"type": "Feature", "geometry": {"type": "Point", "coordinates": [-95.728606, 37.592738]}, "properties": {"Place_Name": "Location of Aiken and Sons Mill", "City": "Guilford", "Rating": 0.0, "Total_Ratings": 0, "Type": "point_of_interest, establishment"}}, {"type": "Feature", "geometry": {"type": "Point", "coordinates": [-95.8272437, 37.5348168]}, "properties": {"Place_Name": "Wilson County Historic Clock Tower", "City": "Fredonia", "Rating": 0.0, "Total_Ratings": 0, "Type": "point_of_interest, establishment"}}, {"type": "Feature", "geometry": {"type": "Point", "coordinates": [-95.9381855, 37.5691289]}, "properties": {"Place_Name": "Wineglass Ramps", "City": "New Albany", "Rating": 4.0, "Total_Ratings": 3, "Type": "point_of_interest, establishment"}}, {"type": "Feature", "geometry": {"type": "Point", "coordinates": [-95.8330553, 37.6683801]}, "properties": {"Place_Name": "Fort Row", "City": "Fredonia", "Rating": 0.0, "Total_Ratings": 0, "Type": "point_of_interest, establishment"}}, {"type": "Feature", "geometry": {"type": "Point", "coordinates": [-96.4978654, 37.8981077]}, "properties": {"Place_Name": "Ivanpah School", "City": "Eureka", "Rating": 5.0, "Total_Ratings": 2, "Type": "point_of_interest, establishment"}}, {"type": "Feature", "geometry": {"type": "Point", "coordinates": [-99.8712702, 39.024872]}, "properties": {"Place_Name": "Trego County Historical Society Museum", "City": "WaKeeney", "Rating": 4.8, "Total_Ratings": 24, "Type": "museum, tourist_attraction, point_of_interest, establishment"}}, {"type": "Feature", "geometry": {"type": "Point", "coordinates": [-99.3323813, 38.8697144]}, "properties": {"Place_Name": "Ellis County Historical Society", "City": "Hays", "Rating": 3.7, "Total_Ratings": 9, "Type": "museum, library, tourist_attraction, point_of_interest, establishment"}}, {"type": "Feature", "geometry": {"type": "Point", "coordinates": [-99.341484, 38.862995]}, "properties": {"Place_Name": "Fort Hays State Historic Site", "City": "Hays", "Rating": 4.6, "Total_Ratings": 222, "Type": "tourist_attraction, museum, point_of_interest, establishment"}}, {"type": "Feature", "geometry": {"type": "Point", "coordinates": [-98.7948155, 39.2804701]}, "properties": {"Place_Name": "Twin Mounds", "City": "Waldo", "Rating": 5.0, "Total_Ratings": 2, "Type": "point_of_interest, establishment"}}, {"type": "Feature", "geometry": {"type": "Point", "coordinates": [-99.3121834, 38.5245324]}, "properties": {"Place_Name": "Rush County Historical Museum", "City": "La Crosse", "Rating": 4.6, "Total_Ratings": 5, "Type": "museum, point_of_interest, establishment"}}, {"type": "Feature", "geometry": {"type": "Point", "coordinates": [-98.8587858, 38.8934628]}, "properties": {"Place_Name": "1872 Gernon House", "City": "Russell", "Rating": 5.0, "Total_Ratings": 1, "Type": "museum, point_of_interest, establishment"}}, {"type": "Feature", "geometry": {"type": "Point", "coordinates": [-99.311587, 38.5246153]}, "properties": {"Place_Name": "Barbed Wire Museum", "City": "La Crosse", "Rating": 4.6, "Total_Ratings": 56, "Type": "museum, tourist_attraction, point_of_interest, establishment"}}, {"type": "Feature", "geometry": {"type": "Point", "coordinates": [-98.8608065, 38.8957563]}, "properties": {"Place_Name": "Bob Dole's Childhood Home", "City": "Russell", "Rating": 5.0, "Total_Ratings": 2, "Type": "point_of_interest, establishment"}}, {"type": "Feature", "geometry": {"type": "Point", "coordinates": [-98.8625372, 38.8889587]}, "properties": {"Place_Name": "Replica Statue of Liberty", "City": "Russell", "Rating": 5.0, "Total_Ratings": 1, "Type": "point_of_interest, establishment"}}, {"type": "Feature", "geometry": {"type": "Point", "coordinates": [-99.8710076, 39.0119027]}, "properties": {"Place_Name": "Iwo Jima Memorial", "City": "WaKeeney", "Rating": 1.0, "Total_Ratings": 2, "Type": "point_of_interest, establishment"}}, {"type": "Feature", "geometry": {"type": "Point", "coordinates": [-98.9158879, 39.1179884]}, "properties": {"Place_Name": "Paradise Water Tower", "City": "Paradise", "Rating": 5.0, "Total_Ratings": 4, "Type": "point_of_interest, establishment"}}, {"type": "Feature", "geometry": {"type": "Point", "coordinates": [-99.5696358, 38.5839816]}, "properties": {"Place_Name": "McCracken Historical Museum", "City": "McCracken", "Rating": 5.0, "Total_Ratings": 3, "Type": "museum, point_of_interest, establishment"}}, {"type": "Feature", "geometry": {"type": "Point", "coordinates": [-99.1514786, 38.8571332]}, "properties": {"Place_Name": "The Pioneer Family", "City": "Victoria", "Rating": 0.0, "Total_Ratings": 0, "Type": "point_of_interest, establishment"}}, {"type": "Feature", "geometry": {"type": "Point", "coordinates": [-99.5652009, 38.9449203]}, "properties": {"Place_Name": "William J Harkleroad Memorial Point", "City": "Ellis", "Rating": 0.0, "Total_Ratings": 0, "Type": "point_of_interest, establishment"}}, {"type": "Feature", "geometry": {"type": "Point", "coordinates": [-98.8583798, 38.888509]}, "properties": {"Place_Name": "Russell County Historical Society and Genealogy Society", "City": "Russell", "Rating": 5.0, "Total_Ratings": 1, "Type": "point_of_interest, establishment"}}, {"type": "Feature", "geometry": {"type": "Point", "coordinates": [-99.3389522, 38.8637386]}, "properties": {"Place_Name": "Frontier Historical Park", "City": "Hays", "Rating": 4.6, "Total_Ratings": 336, "Type": "park, tourist_attraction, point_of_interest, establishment"}}, {"type": "Feature", "geometry": {"type": "Point", "coordinates": [-98.8584526, 38.8903454]}, "properties": {"Place_Name": "Heym-Oliver House", "City": "Russell", "Rating": 0.0, "Total_Ratings": 0, "Type": "point_of_interest, establishment"}}, {"type": "Feature", "geometry": {"type": "Point", "coordinates": [-99.2997841, 38.8890706]}, "properties": {"Place_Name": "Sternberg Museum of Natural History", "City": "Hays", "Rating": 4.7, "Total_Ratings": 726, "Type": "museum, tourist_attraction, point_of_interest, establishment"}}, {"type": "Feature", "geometry": {"type": "Point", "coordinates": [-99.5676589, 38.9371854]}, "properties": {"Place_Name": "Old US 40 Service Station", "City": "Ellis", "Rating": 0.0, "Total_Ratings": 0, "Type": "point_of_interest, establishment"}}, {"type": "Feature", "geometry": {"type": "Point", "coordinates": [-99.3278616, 38.8784129]}, "properties": {"Place_Name": "Boot Hill Cemetery", "City": "Hays", "Rating": 4.2, "Total_Ratings": 60, "Type": "park, tourist_attraction, point_of_interest, establishment"}}, {"type": "Feature", "geometry": {"type": "Point", "coordinates": [-99.6146777, 39.3933595]}, "properties": {"Place_Name": "Nicodemus National Historic Site", "City": "Bogue", "Rating": 4.7, "Total_Ratings": 281, "Type": "tourist_attraction, point_of_interest, establishment"}}, {"type": "Feature", "geometry": {"type": "Point", "coordinates": [-99.6187108, 39.3882245]}, "properties": {"Place_Name": "Nicodemus Historical Society", "City": "Bogue", "Rating": 4.7, "Total_Ratings": 3, "Type": "museum, tourist_attraction, point_of_interest, establishment"}}, {"type": "Feature", "geometry": {"type": "Point", "coordinates": [-99.8712702, 39.024872]}, "properties": {"Place_Name": "Trego County Historical Society Museum", "City": "WaKeeney", "Rating": 4.8, "Total_Ratings": 24, "Type": "museum, tourist_attraction, point_of_interest, establishment"}}, {"type": "Feature", "geometry": {"type": "Point", "coordinates": [-98.8416056, 39.4448404]}, "properties": {"Place_Name": "Amos H. Boultinghouse Homestead", "City": "Osborne", "Rating": 5.0, "Total_Ratings": 1, "Type": "point_of_interest, establishment"}}, {"type": "Feature", "geometry": {"type": "Point", "coordinates": [-98.8370732, 39.3872881]}, "properties": {"Place_Name": "John W. Guyer Homestead", "City": "Osborne", "Rating": 5.0, "Total_Ratings": 1, "Type": "point_of_interest, establishment"}}, {"type": "Feature", "geometry": {"type": "Point", "coordinates": [-98.8063551, 39.4668102]}, "properties": {"Place_Name": "John Storer Homestead", "City": "Alton", "Rating": 5.0, "Total_Ratings": 1, "Type": "point_of_interest, establishment"}}, {"type": "Feature", "geometry": {"type": "Point", "coordinates": [-99.332581, 39.7554363]}, "properties": {"Place_Name": "Fort Bissell Museum", "City": "Phillipsburg", "Rating": 4.6, "Total_Ratings": 22, "Type": "tourist_attraction, point_of_interest, establishment"}}, {"type": "Feature", "geometry": {"type": "Point", "coordinates": [-98.8537151, 39.3982753]}, "properties": {"Place_Name": "Henry John Neuschwanger Homestead", "City": "Osborne", "Rating": 5.0, "Total_Ratings": 1, "Type": "point_of_interest, establishment"}}, {"type": "Feature", "geometry": {"type": "Point", "coordinates": [-99.2756594, 39.4277441]}, "properties": {"Place_Name": "Rooks County Historical Society & Museum", "City": "Stockton", "Rating": 4.8, "Total_Ratings": 11, "Type": "museum, point_of_interest, establishment"}}, {"type": "Feature", "geometry": {"type": "Point", "coordinates": [-98.7948155, 39.2804701]}, "properties": {"Place_Name": "Twin Mounds", "City": "Waldo", "Rating": 5.0, "Total_Ratings": 2, "Type": "point_of_interest, establishment"}}, {"type": "Feature", "geometry": {"type": "Point", "coordinates": [-99.5720139, 39.6616736]}, "properties": {"Place_Name": "Logan Area Historical Museum", "City": "Logan", "Rating": 4.3, "Total_Ratings": 3, "Type": "museum, tourist_attraction, point_of_interest, establishment"}}, {"type": "Feature", "geometry": {"type": "Point", "coordinates": [-99.8710076, 39.0119027]}, "properties": {"Place_Name": "Iwo Jima Memorial", "City": "WaKeeney", "Rating": 1.0, "Total_Ratings": 2, "Type": "point_of_interest, establishment"}}, {"type": "Feature", "geometry": {"type": "Point", "coordinates": [-98.9158879, 39.1179884]}, "properties": {"Place_Name": "Paradise Water Tower", "City": "Paradise", "Rating": 5.0, "Total_Ratings": 4, "Type": "point_of_interest, establishment"}}, {"type": "Feature", "geometry": {"type": "Point", "coordinates": [-99.5652009, 38.9449203]}, "properties": {"Place_Name": "William J Harkleroad Memorial Point", "City": "Ellis", "Rating": 0.0, "Total_Ratings": 0, "Type": "point_of_interest, establishment"}}, {"type": "Feature", "geometry": {"type": "Point", "coordinates": [-98.9401802, 39.6568983]}, "properties": {"Place_Name": "Cedar Depot museum", "City": "Cedar", "Rating": 0.0, "Total_Ratings": 0, "Type": "museum, point_of_interest, establishment"}}, {"type": "Feature", "geometry": {"type": "Point", "coordinates": [-99.5676589, 38.9371854]}, "properties": {"Place_Name": "Old US 40 Service Station", "City": "Ellis", "Rating": 0.0, "Total_Ratings": 0, "Type": "point_of_interest, establishment"}}, {"type": "Feature", "geometry": {"type": "Point", "coordinates": [-99.5609397, 38.9365551]}, "properties": {"Place_Name": "Chrysler Boyhood Home and Museum", "City": "Ellis", "Rating": 4.7, "Total_Ratings": 34, "Type": "museum, tourist_attraction, point_of_interest, establishment"}}, {"type": "Feature", "geometry": {"type": "Point", "coordinates": [-99.1750393, 39.1944011]}, "properties": {"Place_Name": "Cyclone Day Memorial", "City": "Codell", "Rating": 4.6, "Total_Ratings": 9, "Type": "museum, tourist_attraction, point_of_interest, establishment"}}, {"type": "Feature", "geometry": {"type": "Point", "coordinates": [-99.5720139, 39.6616734]}, "properties": {"Place_Name": "Logan Area Historical Society", "City": "Logan", "Rating": 0.0, "Total_Ratings": 0, "Type": "point_of_interest, establishment"}}, {"type": "Feature", "geometry": {"type": "Point", "coordinates": [-99.6180579, 39.3932834]}, "properties": {"Place_Name": "Nicodemus Historic Baseball Diamond", "City": "Bogue", "Rating": 0.0, "Total_Ratings": 0, "Type": "tourist_attraction, point_of_interest, establishment"}}, {"type": "Feature", "geometry": {"type": "Point", "coordinates": [-98.2765413, 38.3475135]}, "properties": {"Place_Name": "Father Padilla Cross and Historic Marker", "City": "Lyons", "Rating": 4.6, "Total_Ratings": 18, "Type": "point_of_interest, establishment"}}, {"type": "Feature", "geometry": {"type": "Point", "coordinates": [-97.79978, 37.616844]}, "properties": {"Place_Name": "Souders Historical Farm Museum", "City": "Cheney", "Rating": 4.9, "Total_Ratings": 25, "Type": "museum, tourist_attraction, point_of_interest, establishment"}}, {"type": "Feature", "geometry": {"type": "Point", "coordinates": [-98.2756556, 38.3338561]}, "properties": {"Place_Name": "Buffalo Bill's Well on the Santa Fe Trail", "City": "Lyons", "Rating": 4.0, "Total_Ratings": 14, "Type": "point_of_interest, establishment"}}, {"type": "Feature", "geometry": {"type": "Point", "coordinates": [-97.6711772, 38.3723454]}, "properties": {"Place_Name": "Historic McPherson Sante Fe Depot", "City": "McPherson", "Rating": 4.4, "Total_Ratings": 5, "Type": "point_of_interest, establishment"}}, {"type": "Feature", "geometry": {"type": "Point", "coordinates": [-97.929881, 38.0532316]}, "properties": {"Place_Name": "Soldiers and Sailors Monument", "City": "Hutchinson", "Rating": 4.0, "Total_Ratings": 3, "Type": "point_of_interest, establishment"}}, {"type": "Feature", "geometry": {"type": "Point", "coordinates": [-97.9458296, 38.0137317]}, "properties": {"Place_Name": "Salt Discovery Well", "City": "South Hutchinson", "Rating": 4.6, "Total_Ratings": 11, "Type": "tourist_attraction, point_of_interest, establishment"}}, {"type": "Feature", "geometry": {"type": "Point", "coordinates": [-97.9555163, 38.3020727]}, "properties": {"Place_Name": "Fry'sRuts", "City": "Little River", "Rating": 5.0, "Total_Ratings": 2, "Type": "point_of_interest, establishment"}}, {"type": "Feature", "geometry": {"type": "Point", "coordinates": [-97.9297192, 38.0473891]}, "properties": {"Place_Name": "Former Rock Island Railroad Depot", "City": "Hutchinson", "Rating": 3.8, "Total_Ratings": 6, "Type": "point_of_interest, establishment"}}, {"type": "Feature", "geometry": {"type": "Point", "coordinates": [-97.5193763, 38.3497623]}, "properties": {"Place_Name": "Santa Fe Trail Marker", "City": "Galva", "Rating": 4.8, "Total_Ratings": 4, "Type": "point_of_interest, establishment"}}, {"type": "Feature", "geometry": {"type": "Point", "coordinates": [-97.6142778, 38.3116435]}, "properties": {"Place_Name": "Chimney Sweep", "City": "McPherson", "Rating": 5.0, "Total_Ratings": 5, "Type": "point_of_interest, establishment"}}, {"type": "Feature", "geometry": {"type": "Point", "coordinates": [-97.9271651, 38.0765718]}, "properties": {"Place_Name": "Ye Old Mill", "City": "Hutchinson", "Rating": 4.6, "Total_Ratings": 12, "Type": "tourist_attraction, point_of_interest, establishment"}}, {"type": "Feature", "geometry": {"type": "Point", "coordinates": [-98.1130595, 37.6453971]}, "properties": {"Place_Name": "Kingman County Historical Museum", "City": "Kingman", "Rating": 4.9, "Total_Ratings": 9, "Type": "museum, point_of_interest, establishment"}}, {"type": "Feature", "geometry": {"type": "Point", "coordinates": [-97.929828, 38.050614]}, "properties": {"Place_Name": "Reno County Museum", "City": "Hutchinson", "Rating": 4.6, "Total_Ratings": 134, "Type": "museum, point_of_interest, establishment"}}, {"type": "Feature", "geometry": {"type": "Point", "coordinates": [-97.6656105, 38.3703285]}, "properties": {"Place_Name": "McPherson Globe Refiners Statue", "City": "McPherson", "Rating": 5.0, "Total_Ratings": 2, "Type": "point_of_interest, establishment"}}, {"type": "Feature", "geometry": {"type": "Point", "coordinates": [-97.9374601, 38.3048582]}, "properties": {"Place_Name": "Little Arkansas Crossing, Santa Fe Trail", "City": "Windom", "Rating": 5.0, "Total_Ratings": 1, "Type": "point_of_interest, establishment"}}, {"type": "Feature", "geometry": {"type": "Point", "coordinates": [-98.1087014, 37.6377901]}, "properties": {"Place_Name": "Mill Race Dam", "City": "Kingman", "Rating": 5.0, "Total_Ratings": 4, "Type": "point_of_interest, establishment"}}, {"type": "Feature", "geometry": {"type": "Point", "coordinates": [-98.5814175, 38.354891]}, "properties": {"Place_Name": "Museum of Ellinwood & Ellinwood Community Historical Society", "City": "Ellinwood", "Rating": 4.0, "Total_Ratings": 1, "Type": "museum, point_of_interest, establishment"}}, {"type": "Feature", "geometry": {"type": "Point", "coordinates": [-98.3405764, 38.3330244]}, "properties": {"Place_Name": "Santa Fe Trail Park", "City": "Chase", "Rating": 4.0, "Total_Ratings": 1, "Type": "point_of_interest, establishment"}}, {"type": "Feature", "geometry": {"type": "Point", "coordinates": [-98.2036586, 38.3456946]}, "properties": {"Place_Name": "Coronado Quivira Museum", "City": "Lyons", "Rating": 4.6, "Total_Ratings": 39, "Type": "museum, tourist_attraction, point_of_interest, establishment"}}, {"type": "Feature", "geometry": {"type": "Point", "coordinates": [-98.600179, 37.9618726]}, "properties": {"Place_Name": "Stafford County Museum", "City": "Stafford", "Rating": 4.7, "Total_Ratings": 13, "Type": "museum, point_of_interest, establishment"}}, {"type": "Feature", "geometry": {"type": "Point", "coordinates": [-100.8364858, 37.478262]}, "properties": {"Place_Name": "Haskell County Historical", "City": "Sublette", "Rating": 4.9, "Total_Ratings": 14, "Type": "museum, tourist_attraction, point_of_interest, establishment"}}, {"type": "Feature", "geometry": {"type": "Point", "coordinates": [-100.0198411, 37.7538328]}, "properties": {"Place_Name": "Ford County Historical Society", "City": "Dodge City", "Rating": 4.8, "Total_Ratings": 6, "Type": "museum, point_of_interest, establishment"}}, {"type": "Feature", "geometry": {"type": "Point", "coordinates": [-100.022025, 37.7530206]}, "properties": {"Place_Name": "1139 Steam Engine", "City": "Dodge City", "Rating": 4.8, "Total_Ratings": 14, "Type": "point_of_interest, establishment"}}, {"type": "Feature", "geometry": {"type": "Point", "coordinates": [-100.4617625, 38.059365]}, "properties": {"Place_Name": "Kansas Historical Marker Beersheba", "City": "Garfield Township", "Rating": 5.0, "Total_Ratings": 1, "Type": "point_of_interest, establishment"}}, {"type": "Feature", "geometry": {"type": "Point", "coordinates": [-100.0151388, 37.7523595]}, "properties": {"Place_Name": "Historic Sundials", "City": "Dodge City", "Rating": 4.5, "Total_Ratings": 2, "Type": "point_of_interest, establishment"}}, {"type": "Feature", "geometry": {"type": "Point", "coordinates": [-100.0213203, 37.7529127]}, "properties": {"Place_Name": "Doc Holliday Statue", "City": "Dodge City", "Rating": 4.7, "Total_Ratings": 43, "Type": "tourist_attraction, point_of_interest, establishment"}}, {"type": "Feature", "geometry": {"type": "Point", "coordinates": [-100.0160383, 37.7526408]}, "properties": {"Place_Name": "Historic Santa Fe Depot", "City": "Dodge City", "Rating": 4.3, "Total_Ratings": 12, "Type": "tourist_attraction, point_of_interest, establishment"}}, {"type": "Feature", "geometry": {"type": "Point", "coordinates": [-100.0206286, 37.7554013]}, "properties": {"Place_Name": "Old West Mural", "City": "Dodge City", "Rating": 5.0, "Total_Ratings": 2, "Type": "point_of_interest, establishment"}}, {"type": "Feature", "geometry": {"type": "Point", "coordinates": [-100.0203815, 37.7552866]}, "properties": {"Place_Name": "La Salsa Man", "City": "Dodge City", "Rating": 4.7, "Total_Ratings": 27, "Type": "tourist_attraction, point_of_interest, establishment"}}, {"type": "Feature", "geometry": {"type": "Point", "coordinates": [-99.9125981, 37.725763]}, "properties": {"Place_Name": "Coronado Cross", "City": "Dodge City", "Rating": 4.3, "Total_Ratings": 70, "Type": "tourist_attraction, point_of_interest, establishment"}}, {"type": "Feature", "geometry": {"type": "Point", "coordinates": [-100.8709223, 37.9602562]}, "properties": {"Place_Name": "Finney County Museum", "City": "Garden City", "Rating": 4.7, "Total_Ratings": 76, "Type": "museum, point_of_interest, establishment"}}, {"type": "Feature", "geometry": {"type": "Point", "coordinates": [-100.8531528, 37.9644498]}, "properties": {"Place_Name": "Largest Flag in Kansas", "City": "Garden City", "Rating": 5.0, "Total_Ratings": 4, "Type": "point_of_interest, establishment"}}, {"type": "Feature", "geometry": {"type": "Point", "coordinates": [-100.0878207, 37.7586572]}, "properties": {"Place_Name": "The Caches - Fort Atkinson", "City": "Dodge City", "Rating": 2.7, "Total_Ratings": 3, "Type": "point_of_interest, establishment"}}, {"type": "Feature", "geometry": {"type": "Point", "coordinates": [-100.0218078, 37.7520557]}, "properties": {"Place_Name": "Dodge City", "City": "Dodge City", "Rating": 0.0, "Total_Ratings": 0, "Type": "point_of_interest, establishment"}}, {"type": "Feature", "geometry": {"type": "Point", "coordinates": [-100.1977533, 37.7895652]}, "properties": {"Place_Name": "Santa Fe Trail Tracks", "City": "Fort Dodge", "Rating": 4.0, "Total_Ratings": 255, "Type": "tourist_attraction, point_of_interest, establishment"}}, {"type": "Feature", "geometry": {"type": "Point", "coordinates": [-100.8722267, 37.9754223]}, "properties": {"Place_Name": "Garden City Water Tower", "City": "Garden City", "Rating": 3.8, "Total_Ratings": 13, "Type": "point_of_interest, establishment"}}, {"type": "Feature", "geometry": {"type": "Point", "coordinates": [-100.0205813, 37.7529421]}, "properties": {"Place_Name": "James Arness (as Matt Dillon) Statue", "City": "Dodge City", "Rating": 5.0, "Total_Ratings": 3, "Type": "point_of_interest, establishment"}}, {"type": "Feature", "geometry": {"type": "Point", "coordinates": [-100.0154429, 37.7523725]}, "properties": {"Place_Name": "Large Mountain Time Sundial", "City": "Dodge City", "Rating": 4.0, "Total_Ratings": 1, "Type": "point_of_interest, establishment"}}, {"type": "Feature", "geometry": {"type": "Point", "coordinates": [-99.8873312, 37.4906872]}, "properties": {"Place_Name": "Fort Dodge Camp Supply Military Road", "City": "Minneola", "Rating": 4.4, "Total_Ratings": 12, "Type": "point_of_interest, establishment"}}, {"type": "Feature", "geometry": {"type": "Point", "coordinates": [-100.0217447, 37.7538033]}, "properties": {"Place_Name": "Boot Hill Museum", "City": "Dodge City", "Rating": 4.6, "Total_Ratings": 2996, "Type": "museum, store, point_of_interest, establishment"}}, {"type": "Feature", "geometry": {"type": "Point", "coordinates": [-95.6719708, 39.0427408]}, "properties": {"Place_Name": "Historic Ritchie House", "City": "Topeka", "Rating": 4.3, "Total_Ratings": 47, "Type": "tourist_attraction, point_of_interest, establishment"}}, {"type": "Feature", "geometry": {"type": "Point", "coordinates": [-96.493941, 38.665916]}, "properties": {"Place_Name": "Kaw Mission State Historic Site", "City": "Council Grove", "Rating": 4.5, "Total_Ratings": 61, "Type": "tourist_attraction, museum, point_of_interest, establishment"}}, {"type": "Feature", "geometry": {"type": "Point", "coordinates": [-95.6833076, 39.0634685]}, "properties": {"Place_Name": "Old Prairie Town at Ward-Meade Historic Site and Botanical Garden", "City": "Topeka", "Rating": 4.6, "Total_Ratings": 464, "Type": "tourist_attraction, park, museum, point_of_interest, establishment"}}, {"type": "Feature", "geometry": {"type": "Point", "coordinates": [-95.9643915, 38.7448722]}, "properties": {"Place_Name": "Old School House", "City": "Harveyville", "Rating": 5.0, "Total_Ratings": 1, "Type": "point_of_interest, establishment"}}, {"type": "Feature", "geometry": {"type": "Point", "coordinates": [-96.3004304, 39.2021295]}, "properties": {"Place_Name": "Wamego Historical Museum", "City": "Wamego", "Rating": 4.7, "Total_Ratings": 30, "Type": "museum, tourist_attraction, point_of_interest, establishment"}}, {"type": "Feature", "geometry": {"type": "Point", "coordinates": [-96.7204732, 39.0616799]}, "properties": {"Place_Name": "Welcome to The Flint Hills Sign", "City": "Junction City", "Rating": 4.5, "Total_Ratings": 2, "Type": "point_of_interest, establishment"}}, {"type": "Feature", "geometry": {"type": "Point", "coordinates": [-96.5955693, 39.192832]}, "properties": {"Place_Name": "Goodnow House State Historic Site", "City": "Manhattan", "Rating": 4.5, "Total_Ratings": 13, "Type": "tourist_attraction, museum, point_of_interest, establishment"}}, {"type": "Feature", "geometry": {"type": "Point", "coordinates": [-96.4315409, 38.6257382]}, "properties": {"Place_Name": "Allegawaho Memorial Heritage Park", "City": "Council Grove", "Rating": 4.3, "Total_Ratings": 20, "Type": "tourist_attraction, point_of_interest, establishment"}}, {"type": "Feature", "geometry": {"type": "Point", "coordinates": [-96.2799133, 38.9073333]}, "properties": {"Place_Name": "Native Stone Scenic Byway Historical Marker", "City": "Alma", "Rating": 4.8, "Total_Ratings": 19, "Type": "point_of_interest, establishment"}}, {"type": "Feature", "geometry": {"type": "Point", "coordinates": [-96.7655388, 39.0379154]}, "properties": {"Place_Name": "The Mormon Trail South Fork Historical Marker", "City": "Junction City", "Rating": 5.0, "Total_Ratings": 1, "Type": "point_of_interest, establishment"}}, {"type": "Feature", "geometry": {"type": "Point", "coordinates": [-96.5960979, 39.1923837]}, "properties": {"Place_Name": "Riley County Historical Museum", "City": "Manhattan", "Rating": 4.7, "Total_Ratings": 69, "Type": "museum, tourist_attraction, point_of_interest, establishment"}}, {"type": "Feature", "geometry": {"type": "Point", "coordinates": [-96.4825012, 39.1208508]}, "properties": {"Place_Name": "Historic Deep Creek Schoolhouse", "City": "Manhattan", "Rating": 5.0, "Total_Ratings": 8, "Type": "point_of_interest, establishment"}}, {"type": "Feature", "geometry": {"type": "Point", "coordinates": [-96.4080357, 39.3962435]}, "properties": {"Place_Name": "Historical Hand-Dug Well", "City": "Westmoreland", "Rating": 4.3, "Total_Ratings": 15, "Type": "point_of_interest, establishment"}}, {"type": "Feature", "geometry": {"type": "Point", "coordinates": [-95.6721691, 39.0426068]}, "properties": {"Place_Name": "Shawnee County Historical Society", "City": "Topeka", "Rating": 4.7, "Total_Ratings": 3, "Type": "museum, tourist_attraction, point_of_interest, establishment"}}, {"type": "Feature", "geometry": {"type": "Point", "coordinates": [-96.4801873, 38.6618761]}, "properties": {"Place_Name": "Former Missouri-Kansas-Texas Depot", "City": "Council Grove", "Rating": 5.0, "Total_Ratings": 1, "Type": "point_of_interest, establishment"}}, {"type": "Feature", "geometry": {"type": "Point", "coordinates": [-95.6826666, 39.0634196]}, "properties": {"Place_Name": "Ward-Meade House", "City": "Topeka", "Rating": 4.5, "Total_Ratings": 2, "Type": "point_of_interest, establishment"}}, {"type": "Feature", "geometry": {"type": "Point", "coordinates": [-96.4807063, 38.6618794]}, "properties": {"Place_Name": "Pioneer Jail", "City": "Council Grove", "Rating": 4.5, "Total_Ratings": 13, "Type": "point_of_interest, establishment"}}, {"type": "Feature", "geometry": {"type": "Point", "coordinates": [-96.7621019, 39.0852807]}, "properties": {"Place_Name": "First Territorial Capitol State Historic Site", "City": "Fort Riley", "Rating": 4.4, "Total_Ratings": 43, "Type": "tourist_attraction, museum, point_of_interest, establishment"}}, {"type": "Feature", "geometry": {"type": "Point", "coordinates": [-96.5887131, 39.1792267]}, "properties": {"Place_Name": "Kimble Castle", "City": "Manhattan", "Rating": 5.0, "Total_Ratings": 2, "Type": "point_of_interest, establishment"}}, {"type": "Feature", "geometry": {"type": "Point", "coordinates": [-96.2507483, 39.2564926]}, "properties": {"Place_Name": "The vieux Crossing and the Miltary road", "City": "Wamego", "Rating": 3.0, "Total_Ratings": 1, "Type": "point_of_interest, establishment"}}, {"type": "Feature", "geometry": {"type": "Point", "coordinates": [-97.2756285, 37.6866813]}, "properties": {"Place_Name": "Frank J. and Harvey J. Ablah House", "City": "Wichita", "Rating": 5.0, "Total_Ratings": 3, "Type": "point_of_interest, establishment"}}, {"type": "Feature", "geometry": {"type": "Point", "coordinates": [-97.345556, 38.0442092]}, "properties": {"Place_Name": "Harvey County Historical Society", "City": "Newton", "Rating": 4.8, "Total_Ratings": 16, "Type": "museum, point_of_interest, establishment"}}, {"type": "Feature", "geometry": {"type": "Point", "coordinates": [-97.3378698, 37.6847302]}, "properties": {"Place_Name": "Wichita-Sedgwick County Historical Museum", "City": "Wichita", "Rating": 4.7, "Total_Ratings": 241, "Type": "museum, tourist_attraction, park, art_gallery, point_of_interest, store, establishment"}}, {"type": "Feature", "geometry": {"type": "Point", "coordinates": [-97.346959, 37.6840349]}, "properties": {"Place_Name": "Delano Clock Tower", "City": "Wichita", "Rating": 4.5, "Total_Ratings": 22, "Type": "point_of_interest, establishment"}}, {"type": "Feature", "geometry": {"type": "Point", "coordinates": [-97.344638, 37.6854689]}, "properties": {"Place_Name": "Chisholm Trail Marker", "City": "Wichita", "Rating": 4.7, "Total_Ratings": 12, "Type": "point_of_interest, establishment"}}, {"type": "Feature", "geometry": {"type": "Point", "coordinates": [-96.9837078, 37.765154]}, "properties": {"Place_Name": "Towanda Kansas Historical Marker", "City": "Towanda", "Rating": 4.2, "Total_Ratings": 10, "Type": "point_of_interest, establishment"}}, {"type": "Feature", "geometry": {"type": "Point", "coordinates": [-97.3556931, 37.6803338]}, "properties": {"Place_Name": "Historic Chisholm Trail Mulberry Tree Marker", "City": "Wichita", "Rating": 4.3, "Total_Ratings": 7, "Type": "point_of_interest, establishment"}}, {"type": "Feature", "geometry": {"type": "Point", "coordinates": [-97.2462431, 37.4737894]}, "properties": {"Place_Name": "Mulvane Historical Museum", "City": "Mulvane", "Rating": 4.7, "Total_Ratings": 43, "Type": "tourist_attraction, museum, point_of_interest, establishment"}}, {"type": "Feature", "geometry": {"type": "Point", "coordinates": [-97.79978, 37.616844]}, "properties": {"Place_Name": "Souders Historical Farm Museum", "City": "Cheney", "Rating": 4.9, "Total_Ratings": 25, "Type": "museum, tourist_attraction, point_of_interest, establishment"}}, {"type": "Feature", "geometry": {"type": "Point", "coordinates": [-97.3284499, 37.6876891]}, "properties": {"Place_Name": "Old Town Information", "City": "Wichita", "Rating": 4.5, "Total_Ratings": 6, "Type": "point_of_interest, establishment"}}, {"type": "Feature", "geometry": {"type": "Point", "coordinates": [-97.5093695, 37.8182452]}, "properties": {"Place_Name": "The Lucky Tree", "City": "Colwich", "Rating": 5.0, "Total_Ratings": 23, "Type": "point_of_interest, establishment"}}, {"type": "Feature", "geometry": {"type": "Point", "coordinates": [-97.1335978, 37.5589645]}, "properties": {"Place_Name": "Rose Hill Historical Society", "City": "Rose Hill", "Rating": 4.0, "Total_Ratings": 4, "Type": "museum, point_of_interest, establishment"}}, {"type": "Feature", "geometry": {"type": "Point", "coordinates": [-97.060623, 37.385101]}, "properties": {"Place_Name": "Stewart Creek Bridge - 1904", "City": "Udall", "Rating": 4.7, "Total_Ratings": 7, "Type": "point_of_interest, establishment"}}, {"type": "Feature", "geometry": {"type": "Point", "coordinates": [-96.9791917, 37.6739215]}, "properties": {"Place_Name": "Augusta Historical Museum", "City": "Augusta", "Rating": 4.8, "Total_Ratings": 33, "Type": "museum, tourist_attraction, point_of_interest, establishment"}}, {"type": "Feature", "geometry": {"type": "Point", "coordinates": [-97.3381779, 37.6860019]}, "properties": {"Place_Name": "Center of Wichita", "City": "Wichita", "Rating": 5.0, "Total_Ratings": 2, "Type": "point_of_interest, establishment"}}, {"type": "Feature", "geometry": {"type": "Point", "coordinates": [-97.3452638, 38.0452683]}, "properties": {"Place_Name": "Old Mill Plaza", "City": "Newton", "Rating": 4.8, "Total_Ratings": 13, "Type": "point_of_interest, establishment"}}, {"type": "Feature", "geometry": {"type": "Point", "coordinates": [-97.929881, 38.0532316]}, "properties": {"Place_Name": "Soldiers and Sailors Monument", "City": "Hutchinson", "Rating": 4.0, "Total_Ratings": 3, "Type": "point_of_interest, establishment"}}, {"type": "Feature", "geometry": {"type": "Point", "coordinates": [-97.2628757, 37.5446454]}, "properties": {"Place_Name": "Derby Historical Museum", "City": "Derby", "Rating": 4.8, "Total_Ratings": 16, "Type": "tourist_attraction, museum, point_of_interest, establishment"}}, {"type": "Feature", "geometry": {"type": "Point", "coordinates": [-97.9458296, 38.0137317]}, "properties": {"Place_Name": "Salt Discovery Well", "City": "South Hutchinson", "Rating": 4.6, "Total_Ratings": 11, "Type": "tourist_attraction, point_of_interest, establishment"}}, {"type": "Feature", "geometry": {"type": "Point", "coordinates": [-97.1502693, 37.9632003]}, "properties": {"Place_Name": "Old Whitewater Jail", "City": "Whitewater", "Rating": 5.0, "Total_Ratings": 3, "Type": "point_of_interest, establishment"}}, {"type": "Feature", "geometry": {"type": "Point", "coordinates": [-95.3921085, 39.0445903]}, "properties": {"Place_Name": "Historic Lecompton", "City": "Lecompton", "Rating": 4.7, "Total_Ratings": 132, "Type": "museum, tourist_attraction, point_of_interest, establishment"}}, {"type": "Feature", "geometry": {"type": "Point", "coordinates": [-95.6719708, 39.0427408]}, "properties": {"Place_Name": "Historic Ritchie House", "City": "Topeka", "Rating": 4.3, "Total_Ratings": 47, "Type": "tourist_attraction, point_of_interest, establishment"}}, {"type": "Feature", "geometry": {"type": "Point", "coordinates": [-95.6833076, 39.0634685]}, "properties": {"Place_Name": "Old Prairie Town at Ward-Meade Historic Site and Botanical Garden", "City": "Topeka", "Rating": 4.6, "Total_Ratings": 464, "Type": "tourist_attraction, park, museum, point_of_interest, establishment"}}, {"type": "Feature", "geometry": {"type": "Point", "coordinates": [-96.1659909, 39.4889827]}, "properties": {"Place_Name": "Onaga Historical Society", "City": "Onaga", "Rating": 4.9, "Total_Ratings": 7, "Type": "museum, tourist_attraction, point_of_interest, establishment"}}, {"type": "Feature", "geometry": {"type": "Point", "coordinates": [-95.3947322, 39.0454091]}, "properties": {"Place_Name": "Constitution Hall State Historic Site", "City": "Lecompton", "Rating": 4.6, "Total_Ratings": 107, "Type": "museum, tourist_attraction, point_of_interest, establishment"}}, {"type": "Feature", "geometry": {"type": "Point", "coordinates": [-96.3004304, 39.2021295]}, "properties": {"Place_Name": "Wamego Historical Museum", "City": "Wamego", "Rating": 4.7, "Total_Ratings": 30, "Type": "museum, tourist_attraction, point_of_interest, establishment"}}, {"type": "Feature", "geometry": {"type": "Point", "coordinates": [-95.3095744, 39.2136142]}, "properties": {"Place_Name": "Old Jefferson Town", "City": "Oskaloosa", "Rating": 4.5, "Total_Ratings": 10, "Type": "tourist_attraction, museum, point_of_interest, establishment"}}, {"type": "Feature", "geometry": {"type": "Point", "coordinates": [-95.6721691, 39.0426068]}, "properties": {"Place_Name": "Shawnee County Historical Society", "City": "Topeka", "Rating": 4.7, "Total_Ratings": 3, "Type": "museum, tourist_attraction, point_of_interest, establishment"}}, {"type": "Feature", "geometry": {"type": "Point", "coordinates": [-96.0638549, 39.8361201]}, "properties": {"Place_Name": "Nemaha County Historical Museum", "City": "Seneca", "Rating": 4.9, "Total_Ratings": 7, "Type": "museum, tourist_attraction, point_of_interest, establishment"}}, {"type": "Feature", "geometry": {"type": "Point", "coordinates": [-95.6826666, 39.0634196]}, "properties": {"Place_Name": "Ward-Meade House", "City": "Topeka", "Rating": 4.5, "Total_Ratings": 2, "Type": "point_of_interest, establishment"}}, {"type": "Feature", "geometry": {"type": "Point", "coordinates": [-95.3913306, 39.044316]}, "properties": {"Place_Name": "Fort Titus", "City": "Lecompton", "Rating": 5.0, "Total_Ratings": 2, "Type": "point_of_interest, establishment"}}, {"type": "Feature", "geometry": {"type": "Point", "coordinates": [-95.3095744, 39.2136142]}, "properties": {"Place_Name": "Jefferson County Historical Society", "City": "Oskaloosa", "Rating": 4.4, "Total_Ratings": 9, "Type": "museum, tourist_attraction, library, point_of_interest, establishment"}}, {"type": "Feature", "geometry": {"type": "Point", "coordinates": [-96.2507483, 39.2564926]}, "properties": {"Place_Name": "The vieux Crossing and the Miltary road", "City": "Wamego", "Rating": 3.0, "Total_Ratings": 1, "Type": "point_of_interest, establishment"}}, {"type": "Feature", "geometry": {"type": "Point", "coordinates": [-95.2333727, 38.9872185]}, "properties": {"Place_Name": "The Lawrence sign, Lawrence, KS", "City": "Lawrence", "Rating": 5.0, "Total_Ratings": 3, "Type": "point_of_interest, establishment"}}, {"type": "Feature", "geometry": {"type": "Point", "coordinates": [-96.2896837, 39.0126409]}, "properties": {"Place_Name": "Wabaunsee County Historical Society & Museum", "City": "Alma", "Rating": 4.7, "Total_Ratings": 13, "Type": "museum, tourist_attraction, point_of_interest, establishment"}}, {"type": "Feature", "geometry": {"type": "Point", "coordinates": [-96.0616984, 39.1910513]}, "properties": {"Place_Name": "Oregon Trail Monument", "City": "St Marys", "Rating": 5.0, "Total_Ratings": 1, "Type": "point_of_interest, establishment"}}, {"type": "Feature", "geometry": {"type": "Point", "coordinates": [-95.678091, 39.0478713]}, "properties": {"Place_Name": "Kansas Capital Dome", "City": "Topeka", "Rating": 4.5, "Total_Ratings": 22, "Type": "point_of_interest, establishment"}}, {"type": "Feature", "geometry": {"type": "Point", "coordinates": [-95.7324902, 39.0548485]}, "properties": {"Place_Name": "Topeka Pioneer Memorial Plaque", "City": "Topeka", "Rating": 3.0, "Total_Ratings": 1, "Type": "point_of_interest, establishment"}}, {"type": "Feature", "geometry": {"type": "Point", "coordinates": [-96.0613208, 39.1912011]}, "properties": {"Place_Name": "World War I Memorial Arch", "City": "St Marys", "Rating": 5.0, "Total_Ratings": 3, "Type": "point_of_interest, establishment"}}, {"type": "Feature", "geometry": {"type": "Point", "coordinates": [-96.246578, 39.255884]}, "properties": {"Place_Name": "Vieux Crossing Cemetery and Historical Marker", "City": "Louisville", "Rating": 4.6, "Total_Ratings": 5, "Type": "point_of_interest, establishment"}}, {"type": "Feature", "geometry": {"type": "Point", "coordinates": [-98.7380052, 37.6445462]}, "properties": {"Place_Name": "Pratt County Historical Museum", "City": "Pratt", "Rating": 4.8, "Total_Ratings": 66, "Type": "museum, tourist_attraction, point_of_interest, establishment"}}, {"type": "Feature", "geometry": {"type": "Point", "coordinates": [-99.2925058, 37.603431]}, "properties": {"Place_Name": "Kiowa County Historical Museum and Soda Fountain", "City": "Greensburg", "Rating": 4.7, "Total_Ratings": 97, "Type": "museum, tourist_attraction, store, food, point_of_interest, establishment"}}, {"type": "Feature", "geometry": {"type": "Point", "coordinates": [-98.5820087, 37.2756651]}, "properties": {"Place_Name": "Carry Nation Home", "City": "Medicine Lodge", "Rating": 4.5, "Total_Ratings": 39, "Type": "point_of_interest, establishment"}}, {"type": "Feature", "geometry": {"type": "Point", "coordinates": [-99.2754664, 37.6085445]}, "properties": {"Place_Name": "Cannonball Stage Line Highway", "City": "Greensburg", "Rating": 4.3, "Total_Ratings": 37, "Type": "point_of_interest, establishment"}}, {"type": "Feature", "geometry": {"type": "Point", "coordinates": [-98.5523587, 37.271854]}, "properties": {"Place_Name": "Amphitheater at Memorial Peace Park", "City": "Medicine Lodge", "Rating": 4.6, "Total_Ratings": 13, "Type": "point_of_interest, establishment"}}, {"type": "Feature", "geometry": {"type": "Point", "coordinates": [-98.5659148, 37.267717]}, "properties": {"Place_Name": "Rodeo Arena at Memorial Peace Park", "City": "Medicine Lodge", "Rating": 4.9, "Total_Ratings": 9, "Type": "point_of_interest, establishment"}}, {"type": "Feature", "geometry": {"type": "Point", "coordinates": [-98.600179, 37.9618726]}, "properties": {"Place_Name": "Stafford County Museum", "City": "Stafford", "Rating": 4.7, "Total_Ratings": 13, "Type": "museum, point_of_interest, establishment"}}, {"type": "Feature", "geometry": {"type": "Point", "coordinates": [-98.5492987, 37.2763041]}, "properties": {"Place_Name": "Barber County Heritage Center", "City": "Medicine Lodge", "Rating": 4.8, "Total_Ratings": 9, "Type": "point_of_interest, establishment"}}, {"type": "Feature", "geometry": {"type": "Point", "coordinates": [-99.2944379, 37.603412]}, "properties": {"Place_Name": "Big Well Museum", "City": "Greensburg", "Rating": 4.7, "Total_Ratings": 660, "Type": "museum, tourist_attraction, point_of_interest, establishment"}}, {"type": "Feature", "geometry": {"type": "Point", "coordinates": [-98.741938, 37.6996544]}, "properties": {"Place_Name": "B-29 Museum", "City": "Pratt", "Rating": 4.7, "Total_Ratings": 13, "Type": "museum, point_of_interest, establishment"}}, {"type": "Feature", "geometry": {"type": "Point", "coordinates": [-99.2926623, 37.6034632]}, "properties": {"Place_Name": "Kiowa County Museum", "City": "Greensburg", "Rating": 4.5, "Total_Ratings": 2, "Type": "museum, point_of_interest, establishment"}}, {"type": "Feature", "geometry": {"type": "Point", "coordinates": [-98.7604905, 38.0023756]}, "properties": {"Place_Name": "St. John Statue of Liberty", "City": "St John", "Rating": 0.0, "Total_Ratings": 0, "Type": "point_of_interest, establishment"}}, {"type": "Feature", "geometry": {"type": "Point", "coordinates": [-98.5883089, 37.2812878]}, "properties": {"Place_Name": "Medicine Lodge Railroad Depot", "City": "Medicine Lodge", "Rating": 0.0, "Total_Ratings": 0, "Type": "point_of_interest, establishment"}}, {"type": "Feature", "geometry": {"type": "Point", "coordinates": [-98.7391608, 37.6517217]}, "properties": {"Place_Name": "Hot and Cold Water Towers", "City": "Pratt", "Rating": 3.9, "Total_Ratings": 8, "Type": "tourist_attraction, point_of_interest, establishment"}}, {"type": "Feature", "geometry": {"type": "Point", "coordinates": [-98.5819331, 37.2756653]}, "properties": {"Place_Name": "Stockade Museum", "City": "Medicine Lodge", "Rating": 4.6, "Total_Ratings": 56, "Type": "travel_agency, museum, store, point_of_interest, establishment"}}, {"type": "Feature", "geometry": {"type": "Point", "coordinates": [-98.7412234, 37.642186]}, "properties": {"Place_Name": "Vernon Filley Art Museum", "City": "Pratt", "Rating": 4.7, "Total_Ratings": 35, "Type": "tourist_attraction, museum, art_gallery, point_of_interest, establishment"}}, {"type": "Feature", "geometry": {"type": "Point", "coordinates": [-98.5505778, 37.267918]}, "properties": {"Place_Name": "Powwow Grounds at Memorial Peace Park", "City": "Medicine Lodge", "Rating": 5.0, "Total_Ratings": 9, "Type": "place_of_worship, point_of_interest, establishment"}}, {"type": "Feature", "geometry": {"type": "Point", "coordinates": [-98.5960897, 37.2757337]}, "properties": {"Place_Name": "Road Side Park", "City": "Medicine Lodge", "Rating": 4.3, "Total_Ratings": 14, "Type": "park, point_of_interest, establishment"}}, {"type": "Feature", "geometry": {"type": "Point", "coordinates": [-99.2930673, 37.6042721]}, "properties": {"Place_Name": "Starlight Park", "City": "Greensburg", "Rating": 5.0, "Total_Ratings": 1, "Type": "park, point_of_interest, establishment"}}, {"type": "Feature", "geometry": {"type": "Point", "coordinates": [-98.7489983, 37.2817423]}, "properties": {"Place_Name": "Gypsum Hills Scenic Byway Info Kiosk", "City": "Medicine Lodge", "Rating": 4.6, "Total_Ratings": 15, "Type": "point_of_interest, establishment"}}, {"type": "Feature", "geometry": {"type": "Point", "coordinates": [-100.9279405, 38.6435538]}, "properties": {"Place_Name": "Battle of Punished Woman's Fork National Historic Site", "City": "Scott City", "Rating": 4.8, "Total_Ratings": 73, "Type": "tourist_attraction, point_of_interest, establishment"}}, {"type": "Feature", "geometry": {"type": "Point", "coordinates": [-100.9486703, 38.7566683]}, "properties": {"Place_Name": "Little Pyramids", "City": "Oakley", "Rating": 4.2, "Total_Ratings": 18, "Type": "point_of_interest, establishment"}}, {"type": "Feature", "geometry": {"type": "Point", "coordinates": [-100.4617625, 38.059365]}, "properties": {"Place_Name": "Kansas Historical Marker Beersheba", "City": "Garfield Township", "Rating": 5.0, "Total_Ratings": 1, "Type": "point_of_interest, establishment"}}, {"type": "Feature", "geometry": {"type": "Point", "coordinates": [-100.1996736, 38.4506213]}, "properties": {"Place_Name": "Kansas Historical Marker", "City": "Beeler", "Rating": 4.8, "Total_Ratings": 4, "Type": "point_of_interest, establishment"}}, {"type": "Feature", "geometry": {"type": "Point", "coordinates": [-100.8688504, 38.735658]}, "properties": {"Place_Name": "Western Vista Historic Byway", "City": "Elkader", "Rating": 4.0, "Total_Ratings": 1, "Type": "point_of_interest, establishment"}}, {"type": "Feature", "geometry": {"type": "Point", "coordinates": [-100.1715166, 38.8583328]}, "properties": {"Place_Name": "Castle Rock Badlands", "City": "Quinter", "Rating": 4.7, "Total_Ratings": 20, "Type": "point_of_interest, establishment"}}, {"type": "Feature", "geometry": {"type": "Point", "coordinates": [-100.4671222, 38.4849849]}, "properties": {"Place_Name": "Lane County Historical Museum", "City": "Dighton", "Rating": 4.3, "Total_Ratings": 16, "Type": "museum, tourist_attraction, point_of_interest, establishment"}}, {"type": "Feature", "geometry": {"type": "Point", "coordinates": [-100.9021606, 38.4821635]}, "properties": {"Place_Name": "Scott County Veteran Memorial", "City": "Scott City", "Rating": 5.0, "Total_Ratings": 3, "Type": "point_of_interest, establishment"}}, {"type": "Feature", "geometry": {"type": "Point", "coordinates": [-100.7629312, 38.7890678]}, "properties": {"Place_Name": "Butterfield Overland Despatch Trail Marker", "City": "Grinnell", "Rating": 5.0, "Total_Ratings": 2, "Type": "point_of_interest, establishment"}}, {"type": "Feature", "geometry": {"type": "Point", "coordinates": [-100.9148925, 38.6768293]}, "properties": {"Place_Name": "El Cuartelejo", "City": "Scott City", "Rating": 4.5, "Total_Ratings": 4, "Type": "point_of_interest, establishment"}}, {"type": "Feature", "geometry": {"type": "Point", "coordinates": [-100.7641158, 38.7954826]}, "properties": {"Place_Name": "Monument Rocks", "City": "Oakley", "Rating": 4.8, "Total_Ratings": 310, "Type": "tourist_attraction, point_of_interest, establishment"}}, {"type": "Feature", "geometry": {"type": "Point", "coordinates": [-99.893992, 38.0849028]}, "properties": {"Place_Name": "Haun Museum", "City": "Jetmore", "Rating": 5.0, "Total_Ratings": 5, "Type": "tourist_attraction, museum, point_of_interest, establishment"}}, {"type": "Feature", "geometry": {"type": "Point", "coordinates": [-100.8549158, 38.7995829]}, "properties": {"Place_Name": "Butterfield Overland Trail Marker", "City": "Winona", "Rating": 2.0, "Total_Ratings": 2, "Type": "point_of_interest, establishment"}}, {"type": "Feature", "geometry": {"type": "Point", "coordinates": [-100.9182503, 38.4827857]}, "properties": {"Place_Name": "El Quartelejo Museum", "City": "Scott City", "Rating": 4.8, "Total_Ratings": 67, "Type": "museum, art_gallery, tourist_attraction, point_of_interest, store, establishment"}}, {"type": "Feature", "geometry": {"type": "Point", "coordinates": [-100.907089, 38.4819244]}, "properties": {"Place_Name": "DeGeer Corner", "City": "Scott City", "Rating": 0.0, "Total_Ratings": 0, "Type": "point_of_interest, establishment"}}, {"type": "Feature", "geometry": {"type": "Point", "coordinates": [-100.9185889, 38.6733226]}, "properties": {"Place_Name": "Steele House Museum", "City": "Scott City", "Rating": 0.0, "Total_Ratings": 0, "Type": "museum, point_of_interest, establishment"}}, {"type": "Feature", "geometry": {"type": "Point", "coordinates": [-100.8689258, 38.7432586]}, "properties": {"Place_Name": "Keystone Gallery", "City": "Scott City", "Rating": 4.7, "Total_Ratings": 130, "Type": "museum, art_gallery, point_of_interest, store, establishment"}}, {"type": "Feature", "geometry": {"type": "Point", "coordinates": [-100.9252166, 38.6853256]}, "properties": {"Place_Name": "Historic Lake Scott State Park", "City": "Scott City", "Rating": 4.5, "Total_Ratings": 382, "Type": "tourist_attraction, park, point_of_interest, establishment"}}, {"type": "Feature", "geometry": {"type": "Point", "coordinates": [-100.9141752, 38.4822033]}, "properties": {"Place_Name": "Old Texaco Gas Station", "City": "Scott City", "Rating": 3.0, "Total_Ratings": 2, "Type": "point_of_interest, establishment"}}, {"type": "Feature", "geometry": {"type": "Point", "coordinates": [-99.9052691, 38.4540034]}, "properties": {"Place_Name": "Ness County Bank Building", "City": "Ness City", "Rating": 4.7, "Total_Ratings": 19, "Type": "point_of_interest, establishment"}}, {"type": "Feature", "geometry": {"type": "Point", "coordinates": [-100.173178, 39.356305]}, "properties": {"Place_Name": "Cottonwood Ranch State Historic Site", "City": "Studley", "Rating": 4.8, "Total_Ratings": 47, "Type": "tourist_attraction, museum, point_of_interest, establishment"}}, {"type": "Feature", "geometry": {"type": "Point", "coordinates": [-99.8712702, 39.024872]}, "properties": {"Place_Name": "Trego County Historical Society Museum", "City": "WaKeeney", "Rating": 4.8, "Total_Ratings": 24, "Type": "museum, tourist_attraction, point_of_interest, establishment"}}, {"type": "Feature", "geometry": {"type": "Point", "coordinates": [-99.3323813, 38.8697144]}, "properties": {"Place_Name": "Ellis County Historical Society", "City": "Hays", "Rating": 3.7, "Total_Ratings": 9, "Type": "museum, tourist_attraction, library, point_of_interest, establishment"}}, {"type": "Feature", "geometry": {"type": "Point", "coordinates": [-99.341484, 38.862995]}, "properties": {"Place_Name": "Fort Hays State Historic Site", "City": "Hays", "Rating": 4.6, "Total_Ratings": 222, "Type": "tourist_attraction, museum, point_of_interest, establishment"}}, {"type": "Feature", "geometry": {"type": "Point", "coordinates": [-100.1715166, 38.8583328]}, "properties": {"Place_Name": "Castle Rock Badlands", "City": "Quinter", "Rating": 4.7, "Total_Ratings": 20, "Type": "point_of_interest, establishment"}}, {"type": "Feature", "geometry": {"type": "Point", "coordinates": [-99.3121834, 38.5245324]}, "properties": {"Place_Name": "Rush County Historical Museum", "City": "La Crosse", "Rating": 4.6, "Total_Ratings": 5, "Type": "museum, point_of_interest, establishment"}}, {"type": "Feature", "geometry": {"type": "Point", "coordinates": [-99.311587, 38.5246153]}, "properties": {"Place_Name": "Barbed Wire Museum", "City": "La Crosse", "Rating": 4.6, "Total_Ratings": 56, "Type": "museum, tourist_attraction, point_of_interest, establishment"}}, {"type": "Feature", "geometry": {"type": "Point", "coordinates": [-99.8710076, 39.0119027]}, "properties": {"Place_Name": "Iwo Jima Memorial", "City": "WaKeeney", "Rating": 1.0, "Total_Ratings": 2, "Type": "point_of_interest, establishment"}}, {"type": "Feature", "geometry": {"type": "Point", "coordinates": [-99.5696358, 38.5839816]}, "properties": {"Place_Name": "McCracken Historical Museum", "City": "McCracken", "Rating": 5.0, "Total_Ratings": 3, "Type": "museum, point_of_interest, establishment"}}, {"type": "Feature", "geometry": {"type": "Point", "coordinates": [-100.4387367, 39.3574535]}, "properties": {"Place_Name": "Sheridan County Historical Society and Mickey's Museum", "City": "Hoxie", "Rating": 5.0, "Total_Ratings": 1, "Type": "point_of_interest, establishment"}}, {"type": "Feature", "geometry": {"type": "Point", "coordinates": [-99.5652009, 38.9449203]}, "properties": {"Place_Name": "William J Harkleroad Memorial Point", "City": "Ellis", "Rating": 0.0, "Total_Ratings": 0, "Type": "point_of_interest, establishment"}}, {"type": "Feature", "geometry": {"type": "Point", "coordinates": [-99.3389522, 38.8637386]}, "properties": {"Place_Name": "Frontier Historical Park", "City": "Hays", "Rating": 4.6, "Total_Ratings": 336, "Type": "park, tourist_attraction, point_of_interest, establishment"}}, {"type": "Feature", "geometry": {"type": "Point", "coordinates": [-99.2997841, 38.8890706]}, "properties": {"Place_Name": "Sternberg Museum of Natural History", "City": "Hays", "Rating": 4.7, "Total_Ratings": 726, "Type": "museum, tourist_attraction, point_of_interest, establishment"}}, {"type": "Feature", "geometry": {"type": "Point", "coordinates": [-99.5676589, 38.9371854]}, "properties": {"Place_Name": "Old US 40 Service Station", "City": "Ellis", "Rating": 0.0, "Total_Ratings": 0, "Type": "point_of_interest, establishment"}}, {"type": "Feature", "geometry": {"type": "Point", "coordinates": [-99.3278616, 38.8784129]}, "properties": {"Place_Name": "Boot Hill Cemetery", "City": "Hays", "Rating": 4.2, "Total_Ratings": 60, "Type": "park, tourist_attraction, point_of_interest, establishment"}}, {"type": "Feature", "geometry": {"type": "Point", "coordinates": [-99.5609397, 38.9365551]}, "properties": {"Place_Name": "Chrysler Boyhood Home and Museum", "City": "Ellis", "Rating": 4.7, "Total_Ratings": 34, "Type": "museum, tourist_attraction, point_of_interest, establishment"}}, {"type": "Feature", "geometry": {"type": "Point", "coordinates": [-99.3120843, 38.5245774]}, "properties": {"Place_Name": "The Post Rock Museum", "City": "La Crosse", "Rating": 5.0, "Total_Ratings": 4, "Type": "tourist_attraction, museum, point_of_interest, establishment"}}, {"type": "Feature", "geometry": {"type": "Point", "coordinates": [-99.3120843, 38.5245774]}, "properties": {"Place_Name": "Nekoma Bank Museum", "City": "La Crosse", "Rating": 5.0, "Total_Ratings": 3, "Type": "museum, point_of_interest, establishment"}}, {"type": "Feature", "geometry": {"type": "Point", "coordinates": [-99.5600955, 38.9384203]}, "properties": {"Place_Name": "Ellis Railroad Museum", "City": "Ellis", "Rating": 4.6, "Total_Ratings": 52, "Type": "museum, tourist_attraction, point_of_interest, establishment"}}, {"type": "Feature", "geometry": {"type": "Point", "coordinates": [-99.5844866, 39.3184234]}, "properties": {"Place_Name": "Damar Community Historical Foundation", "City": "Damar", "Rating": 0.0, "Total_Ratings": 0, "Type": "point_of_interest, establishment"}}, {"type": "Feature", "geometry": {"type": "Point", "coordinates": [-101.3581745, 38.4827597]}, "properties": {"Place_Name": "Museum of the Great Plains", "City": "Leoti", "Rating": 4.9, "Total_Ratings": 14, "Type": "museum, point_of_interest, establishment"}}, {"type": "Feature", "geometry": {"type": "Point", "coordinates": [-101.5828513, 38.9103451]}, "properties": {"Place_Name": "Fort Wallace Museum", "City": "Wallace", "Rating": 4.7, "Total_Ratings": 262, "Type": "museum, point_of_interest, establishment"}}, {"type": "Feature", "geometry": {"type": "Point", "coordinates": [-101.7923244, 38.47311]}, "properties": {"Place_Name": "Old Missouri Pacific/Union Pacific Depot", "City": "Tribune", "Rating": 0.0, "Total_Ratings": 0, "Type": "point_of_interest, establishment"}}, {"type": "Feature", "geometry": {"type": "Point", "coordinates": [-101.5829642, 38.9103372]}, "properties": {"Place_Name": "Western Vistas Historic Byway, Kansas", "City": "Wallace", "Rating": 0.0, "Total_Ratings": 0, "Type": "tourist_attraction, point_of_interest, establishment"}}, {"type": "Feature", "geometry": {"type": "Point", "coordinates": [-101.7508081, 38.4710747]}, "properties": {"Place_Name": "Greeley County Historical Soc", "City": "Tribune", "Rating": 0.0, "Total_Ratings": 0, "Type": "local_government_office, point_of_interest, establishment"}}, {"type": "Feature", "geometry": {"type": "Point", "coordinates": [-101.7522588, 38.4703044]}, "properties": {"Place_Name": "Greeley County Historical Society", "City": "Tribune", "Rating": 0.0, "Total_Ratings": 0, "Type": "local_government_office, point_of_interest, establishment"}}, {"type": "Feature", "geometry": {"type": "Point", "coordinates": [-102.0112382, 38.0410388]}, "properties": {"Place_Name": "Cousin Eddies", "City": "Coolidge", "Rating": 5.0, "Total_Ratings": 4, "Type": "point_of_interest, establishment"}}, {"type": "Feature", "geometry": {"type": "Point", "coordinates": [-101.5595393, 38.9029021]}, "properties": {"Place_Name": "Fort Wallace Post Cemetery", "City": "Wallace", "Rating": 4.7, "Total_Ratings": 10, "Type": "cemetery, point_of_interest, establishment"}}, {"type": "Feature", "geometry": {"type": "Point", "coordinates": [-101.5916122, 38.9133139]}, "properties": {"Place_Name": "The Memory Bank and Wallace Trading Company", "City": "Wallace", "Rating": 5.0, "Total_Ratings": 32, "Type": "cafe, home_goods_store, store, food, point_of_interest, establishment"}}, {"type": "Feature", "geometry": {"type": "Point", "coordinates": [-101.3577372, 38.4827253]}, "properties": {"Place_Name": "Wichita County Historical Society", "City": "Leoti", "Rating": 0.0, "Total_Ratings": 0, "Type": "point_of_interest, establishment"}}, {"type": "Feature", "geometry": {"type": "Point", "coordinates": [-97.345556, 38.0442092]}, "properties": {"Place_Name": "Harvey County Historical Society", "City": "Newton", "Rating": 4.8, "Total_Ratings": 16, "Type": "museum, point_of_interest, establishment"}}, {"type": "Feature", "geometry": {"type": "Point", "coordinates": [-97.9308, 38.824631]}, "properties": {"Place_Name": "Haystack Mound", "City": "Brookville", "Rating": 5.0, "Total_Ratings": 2, "Type": "point_of_interest, establishment"}}, {"type": "Feature", "geometry": {"type": "Point", "coordinates": [-97.6711772, 38.3723454]}, "properties": {"Place_Name": "Historic McPherson Sante Fe Depot", "City": "McPherson", "Rating": 4.4, "Total_Ratings": 5, "Type": "point_of_interest, establishment"}}, {"type": "Feature", "geometry": {"type": "Point", "coordinates": [-97.3452638, 38.0452683]}, "properties": {"Place_Name": "Old Mill Plaza", "City": "Newton", "Rating": 4.8, "Total_Ratings": 13, "Type": "point_of_interest, establishment"}}, {"type": "Feature", "geometry": {"type": "Point", "coordinates": [-97.929881, 38.0532316]}, "properties": {"Place_Name": "Soldiers and Sailors Monument", "City": "Hutchinson", "Rating": 4.0, "Total_Ratings": 3, "Type": "point_of_interest, establishment"}}, {"type": "Feature", "geometry": {"type": "Point", "coordinates": [-97.9458296, 38.0137317]}, "properties": {"Place_Name": "Salt Discovery Well", "City": "South Hutchinson", "Rating": 4.6, "Total_Ratings": 11, "Type": "tourist_attraction, point_of_interest, establishment"}}, {"type": "Feature", "geometry": {"type": "Point", "coordinates": [-97.1502693, 37.9632003]}, "properties": {"Place_Name": "Old Whitewater Jail", "City": "Whitewater", "Rating": 5.0, "Total_Ratings": 3, "Type": "point_of_interest, establishment"}}, {"type": "Feature", "geometry": {"type": "Point", "coordinates": [-97.9555163, 38.3020727]}, "properties": {"Place_Name": "Fry'sRuts", "City": "Little River", "Rating": 5.0, "Total_Ratings": 2, "Type": "point_of_interest, establishment"}}, {"type": "Feature", "geometry": {"type": "Point", "coordinates": [-97.9297192, 38.0473891]}, "properties": {"Place_Name": "Former Rock Island Railroad Depot", "City": "Hutchinson", "Rating": 3.8, "Total_Ratings": 6, "Type": "point_of_interest, establishment"}}, {"type": "Feature", "geometry": {"type": "Point", "coordinates": [-97.3718299, 38.3770911]}, "properties": {"Place_Name": "Chisolm Trail Crossing Santa Fe Trail", "City": "Canton", "Rating": 4.0, "Total_Ratings": 7, "Type": "point_of_interest, establishment"}}, {"type": "Feature", "geometry": {"type": "Point", "coordinates": [-97.8519902, 38.8098712]}, "properties": {"Place_Name": "Twin Mounds", "City": "Brookville", "Rating": 5.0, "Total_Ratings": 1, "Type": "point_of_interest, establishment"}}, {"type": "Feature", "geometry": {"type": "Point", "coordinates": [-97.6069887, 38.8404167]}, "properties": {"Place_Name": "Site of First Free Ferry on Smoky Hill River Marker", "City": "Salina", "Rating": 5.0, "Total_Ratings": 1, "Type": "point_of_interest, establishment"}}, {"type": "Feature", "geometry": {"type": "Point", "coordinates": [-97.6026792, 38.8341622]}, "properties": {"Place_Name": "The Flag Our Fathers Saved", "City": "Salina", "Rating": 3.0, "Total_Ratings": 1, "Type": "point_of_interest, establishment"}}, {"type": "Feature", "geometry": {"type": "Point", "coordinates": [-97.5193763, 38.3497623]}, "properties": {"Place_Name": "Santa Fe Trail Marker", "City": "Galva", "Rating": 4.8, "Total_Ratings": 4, "Type": "point_of_interest, establishment"}}, {"type": "Feature", "geometry": {"type": "Point", "coordinates": [-97.6142778, 38.3116435]}, "properties": {"Place_Name": "Chimney Sweep", "City": "McPherson", "Rating": 5.0, "Total_Ratings": 5, "Type": "point_of_interest, establishment"}}, {"type": "Feature", "geometry": {"type": "Point", "coordinates": [-97.9271651, 38.0765718]}, "properties": {"Place_Name": "Ye Old Mill", "City": "Hutchinson", "Rating": 4.6, "Total_Ratings": 12, "Type": "tourist_attraction, point_of_interest, establishment"}}, {"type": "Feature", "geometry": {"type": "Point", "coordinates": [-97.8318844, 38.5567074]}, "properties": {"Place_Name": "Hans Hanson House", "City": "Marquette", "Rating": 5.0, "Total_Ratings": 1, "Type": "point_of_interest, establishment"}}, {"type": "Feature", "geometry": {"type": "Point", "coordinates": [-97.6092805, 38.8396677]}, "properties": {"Place_Name": "Strand Plaza", "City": "Salina", "Rating": 5.0, "Total_Ratings": 1, "Type": "point_of_interest, establishment"}}, {"type": "Feature", "geometry": {"type": "Point", "coordinates": [-97.7025198, 38.5757608]}, "properties": {"Place_Name": "Hoglund Dugout", "City": "Lindsborg", "Rating": 4.0, "Total_Ratings": 28, "Type": "point_of_interest, establishment"}}, {"type": "Feature", "geometry": {"type": "Point", "coordinates": [-97.929828, 38.050614]}, "properties": {"Place_Name": "Reno County Museum", "City": "Hutchinson", "Rating": 4.6, "Total_Ratings": 134, "Type": "museum, point_of_interest, establishment"}}, {"type": "Feature", "geometry": {"type": "Point", "coordinates": [-97.2756285, 37.6866813]}, "properties": {"Place_Name": "Frank J. and Harvey J. Ablah House", "City": "Wichita", "Rating": 5.0, "Total_Ratings": 3, "Type": "point_of_interest, establishment"}}, {"type": "Feature", "geometry": {"type": "Point", "coordinates": [-97.3378698, 37.6847302]}, "properties": {"Place_Name": "Wichita-Sedgwick County Historical Museum", "City": "Wichita", "Rating": 4.7, "Total_Ratings": 241, "Type": "museum, tourist_attraction, park, art_gallery, store, point_of_interest, establishment"}}, {"type": "Feature", "geometry": {"type": "Point", "coordinates": [-97.346959, 37.6840349]}, "properties": {"Place_Name": "Delano Clock Tower", "City": "Wichita", "Rating": 4.5, "Total_Ratings": 22, "Type": "point_of_interest, establishment"}}, {"type": "Feature", "geometry": {"type": "Point", "coordinates": [-97.344638, 37.6854689]}, "properties": {"Place_Name": "Chisholm Trail Marker", "City": "Wichita", "Rating": 4.7, "Total_Ratings": 12, "Type": "point_of_interest, establishment"}}, {"type": "Feature", "geometry": {"type": "Point", "coordinates": [-97.3556931, 37.6803338]}, "properties": {"Place_Name": "Historic Chisholm Trail Mulberry Tree Marker", "City": "Wichita", "Rating": 4.3, "Total_Ratings": 7, "Type": "point_of_interest, establishment"}}, {"type": "Feature", "geometry": {"type": "Point", "coordinates": [-97.2462431, 37.4737894]}, "properties": {"Place_Name": "Mulvane Historical Museum", "City": "Mulvane", "Rating": 4.7, "Total_Ratings": 43, "Type": "tourist_attraction, museum, point_of_interest, establishment"}}, {"type": "Feature", "geometry": {"type": "Point", "coordinates": [-97.3284499, 37.6876891]}, "properties": {"Place_Name": "Old Town Information", "City": "Wichita", "Rating": 4.5, "Total_Ratings": 6, "Type": "point_of_interest, establishment"}}, {"type": "Feature", "geometry": {"type": "Point", "coordinates": [-96.6073646, 37.6652129]}, "properties": {"Place_Name": "Historic Frisco Railroad Bridge", "City": "Keighley", "Rating": 5.0, "Total_Ratings": 2, "Type": "point_of_interest, establishment"}}, {"type": "Feature", "geometry": {"type": "Point", "coordinates": [-97.1335978, 37.5589645]}, "properties": {"Place_Name": "Rose Hill Historical Society", "City": "Rose Hill", "Rating": 4.0, "Total_Ratings": 4, "Type": "museum, point_of_interest, establishment"}}, {"type": "Feature", "geometry": {"type": "Point", "coordinates": [-97.060623, 37.385101]}, "properties": {"Place_Name": "Stewart Creek Bridge - 1904", "City": "Udall", "Rating": 4.7, "Total_Ratings": 7, "Type": "point_of_interest, establishment"}}, {"type": "Feature", "geometry": {"type": "Point", "coordinates": [-96.9791917, 37.6739215]}, "properties": {"Place_Name": "Augusta Historical Museum", "City": "Augusta", "Rating": 4.8, "Total_Ratings": 33, "Type": "museum, tourist_attraction, point_of_interest, establishment"}}, {"type": "Feature", "geometry": {"type": "Point", "coordinates": [-97.3381779, 37.6860019]}, "properties": {"Place_Name": "Center of Wichita", "City": "Wichita", "Rating": 5.0, "Total_Ratings": 2, "Type": "point_of_interest, establishment"}}, {"type": "Feature", "geometry": {"type": "Point", "coordinates": [-97.0306217, 37.0931897]}, "properties": {"Place_Name": "Scripture Hill", "City": "Arkansas City", "Rating": 3.7, "Total_Ratings": 3, "Type": "point_of_interest, establishment"}}, {"type": "Feature", "geometry": {"type": "Point", "coordinates": [-97.2628757, 37.5446454]}, "properties": {"Place_Name": "Derby Historical Museum", "City": "Derby", "Rating": 4.8, "Total_Ratings": 16, "Type": "tourist_attraction, museum, point_of_interest, establishment"}}, {"type": "Feature", "geometry": {"type": "Point", "coordinates": [-97.0013309, 37.2386917]}, "properties": {"Place_Name": "Cowley County Historical Society Museum (CCHSM)", "City": "Winfield", "Rating": 4.6, "Total_Ratings": 42, "Type": "tourist_attraction, museum, point_of_interest, establishment"}}, {"type": "Feature", "geometry": {"type": "Point", "coordinates": [-96.74509, 37.141268]}, "properties": {"Place_Name": "Crab Creek Bridge", "City": "Dexter", "Rating": 4.8, "Total_Ratings": 9, "Type": "point_of_interest, establishment"}}, {"type": "Feature", "geometry": {"type": "Point", "coordinates": [-95.3921085, 39.0445903]}, "properties": {"Place_Name": "Historic Lecompton", "City": "Lecompton", "Rating": 4.7, "Total_Ratings": 132, "Type": "museum, tourist_attraction, point_of_interest, establishment"}}, {"type": "Feature", "geometry": {"type": "Point", "coordinates": [-95.6719708, 39.0427408]}, "properties": {"Place_Name": "Historic Ritchie House", "City": "Topeka", "Rating": 4.3, "Total_Ratings": 47, "Type": "tourist_attraction, point_of_interest, establishment"}}, {"type": "Feature", "geometry": {"type": "Point", "coordinates": [-95.6833076, 39.0634685]}, "properties": {"Place_Name": "Old Prairie Town at Ward-Meade Historic Site and Botanical Garden", "City": "Topeka", "Rating": 4.6, "Total_Ratings": 464, "Type": "tourist_attraction, park, museum, point_of_interest, establishment"}}, {"type": "Feature", "geometry": {"type": "Point", "coordinates": [-95.9643915, 38.7448722]}, "properties": {"Place_Name": "Old School House", "City": "Harveyville", "Rating": 5.0, "Total_Ratings": 1, "Type": "point_of_interest, establishment"}}, {"type": "Feature", "geometry": {"type": "Point", "coordinates": [-95.3947322, 39.0454091]}, "properties": {"Place_Name": "Constitution Hall State Historic Site", "City": "Lecompton", "Rating": 4.6, "Total_Ratings": 107, "Type": "museum, tourist_attraction, point_of_interest, establishment"}}, {"type": "Feature", "geometry": {"type": "Point", "coordinates": [-95.2469352, 38.9600418]}, "properties": {"Place_Name": "Memorial Carillon and Campanile", "City": "Lawrence", "Rating": 4.8, "Total_Ratings": 77, "Type": "point_of_interest, establishment"}}, {"type": "Feature", "geometry": {"type": "Point", "coordinates": [-96.2799133, 38.9073333]}, "properties": {"Place_Name": "Native Stone Scenic Byway Historical Marker", "City": "Alma", "Rating": 4.8, "Total_Ratings": 19, "Type": "point_of_interest, establishment"}}, {"type": "Feature", "geometry": {"type": "Point", "coordinates": [-96.1753485, 38.4096192]}, "properties": {"Place_Name": "William Allen White Historic", "City": "Emporia", "Rating": 4.9, "Total_Ratings": 39, "Type": "museum, tourist_attraction, point_of_interest, establishment"}}, {"type": "Feature", "geometry": {"type": "Point", "coordinates": [-95.6721691, 39.0426068]}, "properties": {"Place_Name": "Shawnee County Historical Society", "City": "Topeka", "Rating": 4.7, "Total_Ratings": 3, "Type": "museum, tourist_attraction, point_of_interest, establishment"}}, {"type": "Feature", "geometry": {"type": "Point", "coordinates": [-95.6826666, 39.0634196]}, "properties": {"Place_Name": "Ward-Meade House", "City": "Topeka", "Rating": 4.5, "Total_Ratings": 2, "Type": "point_of_interest, establishment"}}, {"type": "Feature", "geometry": {"type": "Point", "coordinates": [-95.3913306, 39.044316]}, "properties": {"Place_Name": "Fort Titus", "City": "Lecompton", "Rating": 5.0, "Total_Ratings": 2, "Type": "point_of_interest, establishment"}}, {"type": "Feature", "geometry": {"type": "Point", "coordinates": [-95.2679511, 38.6106064]}, "properties": {"Place_Name": "Dietrich Cabin", "City": "Ottawa", "Rating": 4.3, "Total_Ratings": 15, "Type": "tourist_attraction, museum, point_of_interest, establishment"}}, {"type": "Feature", "geometry": {"type": "Point", "coordinates": [-95.2922834, 38.6196954]}, "properties": {"Place_Name": "Historic Ottawa Trail Bridge (West)", "City": "Ottawa", "Rating": 5.0, "Total_Ratings": 1, "Type": "point_of_interest, establishment"}}, {"type": "Feature", "geometry": {"type": "Point", "coordinates": [-95.3699687, 38.9095241]}, "properties": {"Place_Name": "Wakarusa River Valley Heritage Museum", "City": "Lawrence", "Rating": 4.5, "Total_Ratings": 31, "Type": "tourist_attraction, museum, point_of_interest, establishment"}}, {"type": "Feature", "geometry": {"type": "Point", "coordinates": [-96.1803561, 38.4066724]}, "properties": {"Place_Name": "Lyon County History Center", "City": "Emporia", "Rating": 4.5, "Total_Ratings": 49, "Type": "museum, tourist_attraction, point_of_interest, establishment"}}, {"type": "Feature", "geometry": {"type": "Point", "coordinates": [-96.1753485, 38.4096136]}, "properties": {"Place_Name": "Red Rocks State Historic Site", "City": "Emporia", "Rating": 4.0, "Total_Ratings": 25, "Type": "tourist_attraction, museum, point_of_interest, establishment"}}, {"type": "Feature", "geometry": {"type": "Point", "coordinates": [-95.2333727, 38.9872185]}, "properties": {"Place_Name": "The Lawrence sign, Lawrence, KS", "City": "Lawrence", "Rating": 5.0, "Total_Ratings": 3, "Type": "point_of_interest, establishment"}}, {"type": "Feature", "geometry": {"type": "Point", "coordinates": [-95.2361108, 38.96397]}, "properties": {"Place_Name": "Watkins Community Museum-History", "City": "Lawrence", "Rating": 4.7, "Total_Ratings": 201, "Type": "museum, point_of_interest, establishment"}}, {"type": "Feature", "geometry": {"type": "Point", "coordinates": [-96.2896837, 39.0126409]}, "properties": {"Place_Name": "Wabaunsee County Historical Society & Museum", "City": "Alma", "Rating": 4.7, "Total_Ratings": 13, "Type": "museum, tourist_attraction, point_of_interest, establishment"}}, {"type": "Feature", "geometry": {"type": "Point", "coordinates": [-95.1771833, 38.804023]}, "properties": {"Place_Name": "Signal Oak", "City": "Baldwin City", "Rating": 4.8, "Total_Ratings": 36, "Type": "point_of_interest, establishment"}}, {"type": "Feature", "geometry": {"type": "Point", "coordinates": [-96.9434822, 38.6635276]}, "properties": {"Place_Name": "Herington Historical Society", "City": "Herington", "Rating": 4.3, "Total_Ratings": 12, "Type": "tourist_attraction, museum, point_of_interest, establishment"}}, {"type": "Feature", "geometry": {"type": "Point", "coordinates": [-97.345556, 38.0442092]}, "properties": {"Place_Name": "Harvey County Historical Society", "City": "Newton", "Rating": 4.8, "Total_Ratings": 16, "Type": "museum, point_of_interest, establishment"}}, {"type": "Feature", "geometry": {"type": "Point", "coordinates": [-96.9370203, 38.2656635]}, "properties": {"Place_Name": "Historic Florence Spring House", "City": "Florence", "Rating": 5.0, "Total_Ratings": 2, "Type": "point_of_interest, establishment"}}, {"type": "Feature", "geometry": {"type": "Point", "coordinates": [-96.5768735, 38.6528785]}, "properties": {"Place_Name": "DAR Santa Fe Trail Crossing Monument", "City": "Council Grove", "Rating": 4.3, "Total_Ratings": 4, "Type": "point_of_interest, establishment"}}, {"type": "Feature", "geometry": {"type": "Point", "coordinates": [-97.3452638, 38.0452683]}, "properties": {"Place_Name": "Old Mill Plaza", "City": "Newton", "Rating": 4.8, "Total_Ratings": 13, "Type": "point_of_interest, establishment"}}, {"type": "Feature", "geometry": {"type": "Point", "coordinates": [-96.9660795, 38.4462421]}, "properties": {"Place_Name": "Amelia Park Bridge", "City": "Lincolnville", "Rating": 5.0, "Total_Ratings": 2, "Type": "point_of_interest, establishment"}}, {"type": "Feature", "geometry": {"type": "Point", "coordinates": [-96.5418717, 38.3718966]}, "properties": {"Place_Name": "Chase County Historical Society & Museum", "City": "Cottonwood Falls", "Rating": 4.7, "Total_Ratings": 24, "Type": "museum, tourist_attraction, point_of_interest, establishment"}}, {"type": "Feature", "geometry": {"type": "Point", "coordinates": [-96.8342558, 38.2600736]}, "properties": {"Place_Name": "The Cottonwood River Pratt Truss Bridge", "City": "Cedar Point", "Rating": 4.3, "Total_Ratings": 15, "Type": "point_of_interest, establishment"}}, {"type": "Feature", "geometry": {"type": "Point", "coordinates": [-97.1502693, 37.9632003]}, "properties": {"Place_Name": "Old Whitewater Jail", "City": "Whitewater", "Rating": 5.0, "Total_Ratings": 3, "Type": "point_of_interest, establishment"}}, {"type": "Feature", "geometry": {"type": "Point", "coordinates": [-96.5577578, 38.4343005]}, "properties": {"Place_Name": "Spring Hill Ranch House", "City": "Strong City", "Rating": 4.8, "Total_Ratings": 12, "Type": "point_of_interest, establishment"}}, {"type": "Feature", "geometry": {"type": "Point", "coordinates": [-97.6711772, 38.3723454]}, "properties": {"Place_Name": "Historic McPherson Sante Fe Depot", "City": "McPherson", "Rating": 4.4, "Total_Ratings": 5, "Type": "point_of_interest, establishment"}}, {"type": "Feature", "geometry": {"type": "Point", "coordinates": [-96.5966225, 38.1193389]}, "properties": {"Place_Name": "Historical Marker", "City": "Cassoday", "Rating": 4.5, "Total_Ratings": 6, "Type": "point_of_interest, establishment"}}, {"type": "Feature", "geometry": {"type": "Point", "coordinates": [-97.3718299, 38.3770911]}, "properties": {"Place_Name": "Chisolm Trail Crossing Santa Fe Trail", "City": "Canton", "Rating": 4.0, "Total_Ratings": 7, "Type": "point_of_interest, establishment"}}, {"type": "Feature", "geometry": {"type": "Point", "coordinates": [-97.0121429, 38.5658595]}, "properties": {"Place_Name": "Lost Spring Station of the Santa Fe Trail", "City": "Ramona", "Rating": 5.0, "Total_Ratings": 3, "Type": "point_of_interest, establishment"}}, {"type": "Feature", "geometry": {"type": "Point", "coordinates": [-97.5193763, 38.3497623]}, "properties": {"Place_Name": "Santa Fe Trail Marker", "City": "Galva", "Rating": 4.8, "Total_Ratings": 4, "Type": "point_of_interest, establishment"}}, {"type": "Feature", "geometry": {"type": "Point", "coordinates": [-96.8197803, 38.2616658]}, "properties": {"Place_Name": "Cedar Point Mill", "City": "Cedar Point", "Rating": 4.3, "Total_Ratings": 38, "Type": "point_of_interest, establishment"}}, {"type": "Feature", "geometry": {"type": "Point", "coordinates": [-97.6142778, 38.3116435]}, "properties": {"Place_Name": "Chimney Sweep", "City": "McPherson", "Rating": 5.0, "Total_Ratings": 5, "Type": "point_of_interest, establishment"}}, {"type": "Feature", "geometry": {"type": "Point", "coordinates": [-96.8565196, 38.6050539]}, "properties": {"Place_Name": "Six Mile Creek Stage Station", "City": "Burdick", "Rating": 5.0, "Total_Ratings": 3, "Type": "point_of_interest, establishment"}}, {"type": "Feature", "geometry": {"type": "Point", "coordinates": [-96.5799591, 38.094572]}, "properties": {"Place_Name": "Bluestem Pasture Region", "City": "Matfield Green", "Rating": 5.0, "Total_Ratings": 2, "Type": "point_of_interest, establishment"}}, {"type": "Feature", "geometry": {"type": "Point", "coordinates": [-96.8613161, 38.2022937]}, "properties": {"Place_Name": "Dr. William B. Jones - Old Stone House", "City": "Florence", "Rating": 4.4, "Total_Ratings": 5, "Type": "point_of_interest, establishment"}}, {"type": "Feature", "geometry": {"type": "Point", "coordinates": [-98.9821631, 38.2723361]}, "properties": {"Place_Name": "Pawnee Rock State Historic Site", "City": "Pawnee Rock", "Rating": 4.7, "Total_Ratings": 176, "Type": "tourist_attraction, park, point_of_interest, establishment"}}, {"type": "Feature", "geometry": {"type": "Point", "coordinates": [-98.8498471, 38.3472756]}, "properties": {"Place_Name": "B-29 Memorial Plaza", "City": "Great Bend", "Rating": 4.7, "Total_Ratings": 16, "Type": "tourist_attraction, point_of_interest, establishment"}}, {"type": "Feature", "geometry": {"type": "Point", "coordinates": [-98.7659099, 38.3486362]}, "properties": {"Place_Name": "Barton County Historical Society", "City": "Great Bend", "Rating": 4.7, "Total_Ratings": 53, "Type": "museum, tourist_attraction, point_of_interest, establishment"}}, {"type": "Feature", "geometry": {"type": "Point", "coordinates": [-99.2211372, 38.182531]}, "properties": {"Place_Name": "Fort Larned National Historic Site", "City": "Larned", "Rating": 4.8, "Total_Ratings": 499, "Type": "tourist_attraction, museum, park, point_of_interest, establishment"}}, {"type": "Feature", "geometry": {"type": "Point", "coordinates": [-99.3323813, 38.8697144]}, "properties": {"Place_Name": "Ellis County Historical Society", "City": "Hays", "Rating": 3.7, "Total_Ratings": 9, "Type": "museum, tourist_attraction, library, point_of_interest, establishment"}}, {"type": "Feature", "geometry": {"type": "Point", "coordinates": [-99.341484, 38.862995]}, "properties": {"Place_Name": "Fort Hays State Historic Site", "City": "Hays", "Rating": 4.6, "Total_Ratings": 222, "Type": "tourist_attraction, museum, point_of_interest, establishment"}}, {"type": "Feature", "geometry": {"type": "Point", "coordinates": [-99.1600355, 38.1732144]}, "properties": {"Place_Name": "Boyd's Ranch Historical Marker", "City": "Larned", "Rating": 3.7, "Total_Ratings": 3, "Type": "point_of_interest, establishment"}}, {"type": "Feature", "geometry": {"type": "Point", "coordinates": [-99.3121834, 38.5245324]}, "properties": {"Place_Name": "Rush County Historical Museum", "City": "La Crosse", "Rating": 4.6, "Total_Ratings": 5, "Type": "museum, point_of_interest, establishment"}}, {"type": "Feature", "geometry": {"type": "Point", "coordinates": [-98.9814583, 38.2650666]}, "properties": {"Place_Name": "former AT&SF Train Depot", "City": "Pawnee Rock", "Rating": 3.0, "Total_Ratings": 1, "Type": "point_of_interest, establishment"}}, {"type": "Feature", "geometry": {"type": "Point", "coordinates": [-98.8587858, 38.8934628]}, "properties": {"Place_Name": "1872 Gernon House", "City": "Russell", "Rating": 5.0, "Total_Ratings": 1, "Type": "museum, point_of_interest, establishment"}}, {"type": "Feature", "geometry": {"type": "Point", "coordinates": [-99.311587, 38.5246153]}, "properties": {"Place_Name": "Barbed Wire Museum", "City": "La Crosse", "Rating": 4.6, "Total_Ratings": 56, "Type": "museum, tourist_attraction, point_of_interest, establishment"}}, {"type": "Feature", "geometry": {"type": "Point", "coordinates": [-98.8608065, 38.8957563]}, "properties": {"Place_Name": "Bob Dole's Childhood Home", "City": "Russell", "Rating": 5.0, "Total_Ratings": 2, "Type": "point_of_interest, establishment"}}, {"type": "Feature", "geometry": {"type": "Point", "coordinates": [-98.8625372, 38.8889587]}, "properties": {"Place_Name": "Replica Statue of Liberty", "City": "Russell", "Rating": 5.0, "Total_Ratings": 1, "Type": "point_of_interest, establishment"}}, {"type": "Feature", "geometry": {"type": "Point", "coordinates": [-99.5696358, 38.5839816]}, "properties": {"Place_Name": "McCracken Historical Museum", "City": "McCracken", "Rating": 5.0, "Total_Ratings": 3, "Type": "museum, point_of_interest, establishment"}}, {"type": "Feature", "geometry": {"type": "Point", "coordinates": [-99.1041752, 38.1757337]}, "properties": {"Place_Name": "Sibley's Camp", "City": "Larned", "Rating": 3.5, "Total_Ratings": 13, "Type": "tourist_attraction, point_of_interest, establishment"}}, {"type": "Feature", "geometry": {"type": "Point", "coordinates": [-99.1514786, 38.8571332]}, "properties": {"Place_Name": "The Pioneer Family", "City": "Victoria", "Rating": 0.0, "Total_Ratings": 0, "Type": "point_of_interest, establishment"}}, {"type": "Feature", "geometry": {"type": "Point", "coordinates": [-99.1417408, 38.1882046]}, "properties": {"Place_Name": "Santa Fe Trail Center", "City": "Larned", "Rating": 4.4, "Total_Ratings": 32, "Type": "tourist_attraction, library, museum, point_of_interest, establishment"}}, {"type": "Feature", "geometry": {"type": "Point", "coordinates": [-99.5652009, 38.9449203]}, "properties": {"Place_Name": "William J Harkleroad Memorial Point", "City": "Ellis", "Rating": 0.0, "Total_Ratings": 0, "Type": "point_of_interest, establishment"}}, {"type": "Feature", "geometry": {"type": "Point", "coordinates": [-98.8583798, 38.888509]}, "properties": {"Place_Name": "Russell County Historical Society and Genealogy Society", "City": "Russell", "Rating": 5.0, "Total_Ratings": 1, "Type": "point_of_interest, establishment"}}, {"type": "Feature", "geometry": {"type": "Point", "coordinates": [-99.5294439, 38.1889421]}, "properties": {"Place_Name": "Burdett Historical Marker", "City": "Burdett", "Rating": 0.0, "Total_Ratings": 0, "Type": "point_of_interest, establishment"}}, {"type": "Feature", "geometry": {"type": "Point", "coordinates": [-95.086493, 39.4322232]}, "properties": {"Place_Name": "Historic Fort Leavenworth", "City": "Atchison", "Rating": 3.6, "Total_Ratings": 9, "Type": "point_of_interest, establishment"}}, {"type": "Feature", "geometry": {"type": "Point", "coordinates": [-95.1272359, 39.5599814]}, "properties": {"Place_Name": "Atchison County Historical Society", "City": "Atchison", "Rating": 4.6, "Total_Ratings": 73, "Type": "museum, point_of_interest, establishment"}}, {"type": "Feature", "geometry": {"type": "Point", "coordinates": [-95.098544, 39.6205428]}, "properties": {"Place_Name": "Independence Creek: Lewis and Clark historical site", "City": "Atchison", "Rating": 4.4, "Total_Ratings": 16, "Type": "point_of_interest, establishment"}}, {"type": "Feature", "geometry": {"type": "Point", "coordinates": [-95.1334962, 39.5632838]}, "properties": {"Place_Name": "1889 McInteer Villa", "City": "Atchison", "Rating": 4.8, "Total_Ratings": 192, "Type": "tourist_attraction, point_of_interest, establishment"}}, {"type": "Feature", "geometry": {"type": "Point", "coordinates": [-94.9138218, 39.3557721]}, "properties": {"Place_Name": "Oregon and Santa Fe Trailheads", "City": "Fort Leavenworth", "Rating": 4.5, "Total_Ratings": 15, "Type": "point_of_interest, establishment"}}, {"type": "Feature", "geometry": {"type": "Point", "coordinates": [-95.2960603, 39.9776581]}, "properties": {"Place_Name": "Wilbur Chapman Monument", "City": "White Cloud", "Rating": 3.7, "Total_Ratings": 3, "Type": "tourist_attraction, point_of_interest, establishment"}}, {"type": "Feature", "geometry": {"type": "Point", "coordinates": [-95.1198777, 39.5665097]}, "properties": {"Place_Name": "RavenHearse Manor", "City": "Atchison", "Rating": 4.9, "Total_Ratings": 16, "Type": "point_of_interest, establishment"}}, {"type": "Feature", "geometry": {"type": "Point", "coordinates": [-94.9651977, 39.3975881]}, "properties": {"Place_Name": "Fort de Cavagnial", "City": "Leavenworth", "Rating": 3.0, "Total_Ratings": 4, "Type": "point_of_interest, establishment"}}, {"type": "Feature", "geometry": {"type": "Point", "coordinates": [-95.4585377, 39.355183]}, "properties": {"Place_Name": "Walnut Creek Bridge", "City": "Valley Falls", "Rating": 4.3, "Total_Ratings": 3, "Type": "point_of_interest, establishment"}}, {"type": "Feature", "geometry": {"type": "Point", "coordinates": [-101.3393055, 37.8952384]}, "properties": {"Place_Name": "Indian Mound", "City": "Hartland", "Rating": 4.0, "Total_Ratings": 1, "Type": "point_of_interest, establishment"}}, {"type": "Feature", "geometry": {"type": "Point", "coordinates": [-101.3552232, 37.5770652]}, "properties": {"Place_Name": "Historic Adobe Museum", "City": "Ulysses", "Rating": 4.8, "Total_Ratings": 31, "Type": "tourist_attraction, museum, point_of_interest, establishment"}}, {"type": "Feature", "geometry": {"type": "Point", "coordinates": [-101.7514317, 37.9804503]}, "properties": {"Place_Name": "Hamilton County Historical", "City": "Syracuse", "Rating": 4.3, "Total_Ratings": 3, "Type": "museum, point_of_interest, establishment"}}, {"type": "Feature", "geometry": {"type": "Point", "coordinates": [-101.7496836, 37.5633303]}, "properties": {"Place_Name": "Stanton County Museum", "City": "Johnson City", "Rating": 4.9, "Total_Ratings": 15, "Type": "tourist_attraction, museum, point_of_interest, establishment"}}, {"type": "Feature", "geometry": {"type": "Point", "coordinates": [-102.0415095, 37.4696118]}, "properties": {"Place_Name": "Kansas/ Colorado Border Parking Area", "City": "Walsh", "Rating": 4.6, "Total_Ratings": 14, "Type": "point_of_interest, establishment"}}, {"type": "Feature", "geometry": {"type": "Point", "coordinates": [-101.2566896, 37.9385003]}, "properties": {"Place_Name": "Kearny County Museum", "City": "Lakin", "Rating": 4.7, "Total_Ratings": 13, "Type": "museum, tourist_attraction, point_of_interest, establishment"}}, {"type": "Feature", "geometry": {"type": "Point", "coordinates": [-101.6464368, 37.2288084]}, "properties": {"Place_Name": "Santa Fe Trail Historical Marker", "City": "Richfield", "Rating": 0.0, "Total_Ratings": 0, "Type": "tourist_attraction, point_of_interest, establishment"}}, {"type": "Feature", "geometry": {"type": "Point", "coordinates": [-101.3420197, 37.1720366]}, "properties": {"Place_Name": "former AT&SF Train Depot", "City": "Hugoton", "Rating": 0.0, "Total_Ratings": 0, "Type": "point_of_interest, establishment"}}, {"type": "Feature", "geometry": {"type": "Point", "coordinates": [-101.3552174, 37.5769426]}, "properties": {"Place_Name": "Grant County Museum", "City": "Ulysses", "Rating": 4.8, "Total_Ratings": 6, "Type": "museum, tourist_attraction, point_of_interest, establishment"}}, {"type": "Feature", "geometry": {"type": "Point", "coordinates": [-101.341629, 37.1726755]}, "properties": {"Place_Name": "Stevens County Gas Museum", "City": "Hugoton", "Rating": 4.6, "Total_Ratings": 27, "Type": "museum, point_of_interest, establishment"}}, {"type": "Feature", "geometry": {"type": "Point", "coordinates": [-101.8558295, 37.144442]}, "properties": {"Place_Name": "Old Santa Fe Trail along the northside Cimmaron River", "City": "Elkhart", "Rating": 0.0, "Total_Ratings": 0, "Type": "point_of_interest, establishment"}}, {"type": "Feature", "geometry": {"type": "Point", "coordinates": [-101.719629, 37.201023]}, "properties": {"Place_Name": "Conestoga Trailhead", "City": "Richfield", "Rating": 4.5, "Total_Ratings": 2, "Type": "park, point_of_interest, establishment"}}, {"type": "Feature", "geometry": {"type": "Point", "coordinates": [-101.3707193, 37.3983562]}, "properties": {"Place_Name": "Wagon Bed Spring", "City": "Sullivan", "Rating": 4.5, "Total_Ratings": 2, "Type": "natural_feature, establishment"}}, {"type": "Feature", "geometry": {"type": "Point", "coordinates": [-94.8772177, 38.5727047]}, "properties": {"Place_Name": "Miami County Kansas Historical Society & Museum", "City": "Paola", "Rating": 4.7, "Total_Ratings": 30, "Type": "museum, tourist_attraction, point_of_interest, establishment"}}, {"type": "Feature", "geometry": {"type": "Point", "coordinates": [-94.862608, 38.97801]}, "properties": {"Place_Name": "Monticello Community Historical Society", "City": "Shawnee", "Rating": 4.3, "Total_Ratings": 10, "Type": "museum, point_of_interest, establishment"}}, {"type": "Feature", "geometry": {"type": "Point", "coordinates": [-94.9312699, 38.8112431]}, "properties": {"Place_Name": "Gardner Historical Museum", "City": "Gardner", "Rating": 4.6, "Total_Ratings": 29, "Type": "museum, tourist_attraction, point_of_interest, establishment"}}, {"type": "Feature", "geometry": {"type": "Point", "coordinates": [-94.9686352, 38.9779789]}, "properties": {"Place_Name": "De Soto Historical Society", "City": "De Soto", "Rating": 0.0, "Total_Ratings": 0, "Type": "point_of_interest, establishment"}}, {"type": "Feature", "geometry": {"type": "Point", "coordinates": [-95.6842973, 38.6096926]}, "properties": {"Place_Name": "Osage County Historical Society", "City": "Lyndon", "Rating": 4.6, "Total_Ratings": 12, "Type": "museum, point_of_interest, establishment"}}, {"type": "Feature", "geometry": {"type": "Point", "coordinates": [-94.7432311, 38.8127203]}, "properties": {"Place_Name": "Heritage Park Barn", "City": "Olathe", "Rating": 5.0, "Total_Ratings": 1, "Type": "point_of_interest, establishment"}}, {"type": "Feature", "geometry": {"type": "Point", "coordinates": [-94.822232, 38.883852]}, "properties": {"Place_Name": "Franklin D. Roosevelt", "City": "Olathe", "Rating": 0.0, "Total_Ratings": 0, "Type": "point_of_interest, establishment"}}, {"type": "Feature", "geometry": {"type": "Point", "coordinates": [-94.7316055, 38.9213806]}, "properties": {"Place_Name": "Big Orange Caboose", "City": "Overland Park", "Rating": 4.8, "Total_Ratings": 4, "Type": "point_of_interest, establishment"}}, {"type": "Feature", "geometry": {"type": "Point", "coordinates": [-94.942056, 38.503283]}, "properties": {"Place_Name": "William Mills House", "City": "Osawatomie", "Rating": 5.0, "Total_Ratings": 1, "Type": "point_of_interest, establishment"}}, {"type": "Feature", "geometry": {"type": "Point", "coordinates": [-95.2487028, 38.2784359]}, "properties": {"Place_Name": "Anderson County Historical Society Museum", "City": "Garnett", "Rating": 4.3, "Total_Ratings": 9, "Type": "museum, point_of_interest, establishment"}}, {"type": "Feature", "geometry": {"type": "Point", "coordinates": [-95.241468, 38.6237124]}, "properties": {"Place_Name": "Franklin County Historical Society Archives & Research Center", "City": "Ottawa", "Rating": 5.0, "Total_Ratings": 3, "Type": "point_of_interest, establishment"}}, {"type": "Feature", "geometry": {"type": "Point", "coordinates": [-95.2361108, 38.96397]}, "properties": {"Place_Name": "Watkins Community Museum-History", "City": "Lawrence", "Rating": 4.7, "Total_Ratings": 201, "Type": "museum, point_of_interest, establishment"}}, {"type": "Feature", "geometry": {"type": "Point", "coordinates": [-95.749326, 38.194431]}, "properties": {"Place_Name": "Coffey County Historical Museum", "City": "Burlington", "Rating": 4.6, "Total_Ratings": 41, "Type": "museum, tourist_attraction, point_of_interest, establishment"}}, {"type": "Feature", "geometry": {"type": "Point", "coordinates": [-94.7234358, 38.1450211]}, "properties": {"Place_Name": "Mine Creek Civil War Battlefield State Historic Site", "City": "Pleasanton", "Rating": 4.6, "Total_Ratings": 129, "Type": "park, tourist_attraction, point_of_interest, establishment"}}, {"type": "Feature", "geometry": {"type": "Point", "coordinates": [-94.991698, 38.788536]}, "properties": {"Place_Name": "Lanesfield Historic Site", "City": "Edgerton", "Rating": 4.7, "Total_Ratings": 49, "Type": "museum, point_of_interest, establishment"}}, {"type": "Feature", "geometry": {"type": "Point", "coordinates": [-95.2275862, 38.9654163]}, "properties": {"Place_Name": "Murphy Bromelsick House, homesite of John Speer at Hobbs Park Memorial", "City": "Lawrence", "Rating": 0.0, "Total_Ratings": 0, "Type": "point_of_interest, establishment"}}, {"type": "Feature", "geometry": {"type": "Point", "coordinates": [-95.2922834, 38.6196954]}, "properties": {"Place_Name": "Historic Ottawa Trail Bridge (West)", "City": "Ottawa", "Rating": 5.0, "Total_Ratings": 1, "Type": "point_of_interest, establishment"}}, {"type": "Feature", "geometry": {"type": "Point", "coordinates": [-95.6859096, 38.773719]}, "properties": {"Place_Name": "Santa Fe Trail Historical Marker", "City": "Ridgeway", "Rating": 0.0, "Total_Ratings": 0, "Type": "point_of_interest, establishment"}}, {"type": "Feature", "geometry": {"type": "Point", "coordinates": [-94.8483638, 38.5665705]}, "properties": {"Place_Name": "The Old Baptist Mission or Wea Mission Site", "City": "Paola", "Rating": 0.0, "Total_Ratings": 0, "Type": "point_of_interest, establishment"}}, {"type": "Feature", "geometry": {"type": "Point", "coordinates": [-95.0821299, 38.7197679]}, "properties": {"Place_Name": "WELLSVILLE HISTORICAL SOCIETY", "City": "Wellsville", "Rating": 0.0, "Total_Ratings": 0, "Type": "point_of_interest, establishment"}}, {"type": "Feature", "geometry": {"type": "Point", "coordinates": [-96.8721267, 39.0296294]}, "properties": {"Place_Name": "Spring Valley Historic Site", "City": "Junction City", "Rating": 4.7, "Total_Ratings": 10, "Type": "tourist_attraction, point_of_interest, establishment"}}, {"type": "Feature", "geometry": {"type": "Point", "coordinates": [-96.8337989, 39.0278966]}, "properties": {"Place_Name": "Geary County Historical Society", "City": "Junction City", "Rating": 4.5, "Total_Ratings": 41, "Type": "tourist_attraction, museum, point_of_interest, establishment"}}, {"type": "Feature", "geometry": {"type": "Point", "coordinates": [-96.7928187, 39.0643223]}, "properties": {"Place_Name": "Ogden Monument", "City": "Fort Riley", "Rating": 4.2, "Total_Ratings": 18, "Type": "point_of_interest, establishment"}}, {"type": "Feature", "geometry": {"type": "Point", "coordinates": [-96.1659909, 39.4889827]}, "properties": {"Place_Name": "Onaga Historical Society", "City": "Onaga", "Rating": 4.9, "Total_Ratings": 7, "Type": "museum, tourist_attraction, point_of_interest, establishment"}}, {"type": "Feature", "geometry": {"type": "Point", "coordinates": [-96.3004304, 39.2021295]}, "properties": {"Place_Name": "Wamego Historical Museum", "City": "Wamego", "Rating": 4.7, "Total_Ratings": 30, "Type": "museum, tourist_attraction, point_of_interest, establishment"}}, {"type": "Feature", "geometry": {"type": "Point", "coordinates": [-96.7204732, 39.0616799]}, "properties": {"Place_Name": "Welcome to The Flint Hills Sign", "City": "Junction City", "Rating": 4.5, "Total_Ratings": 2, "Type": "point_of_interest, establishment"}}, {"type": "Feature", "geometry": {"type": "Point", "coordinates": [-96.5955693, 39.192832]}, "properties": {"Place_Name": "Goodnow House State Historic Site", "City": "Manhattan", "Rating": 4.5, "Total_Ratings": 13, "Type": "tourist_attraction, museum, point_of_interest, establishment"}}, {"type": "Feature", "geometry": {"type": "Point", "coordinates": [-96.7655388, 39.0379154]}, "properties": {"Place_Name": "The Mormon Trail South Fork Historical Marker", "City": "Junction City", "Rating": 5.0, "Total_Ratings": 1, "Type": "point_of_interest, establishment"}}, {"type": "Feature", "geometry": {"type": "Point", "coordinates": [-96.5960979, 39.1923837]}, "properties": {"Place_Name": "Riley County Historical Museum", "City": "Manhattan", "Rating": 4.7, "Total_Ratings": 69, "Type": "museum, tourist_attraction, point_of_interest, establishment"}}, {"type": "Feature", "geometry": {"type": "Point", "coordinates": [-96.4825012, 39.1208508]},