{
"type": "FeatureCollection",
"features": [
{ "type": "Feature", "properties": { "name": "Kiowa District Hospital", "city": "Kiowa", "state": "KS", "long": -98.483598999799995, "lat": 37.015142000099999 }, "geometry": { "type": "Point", "coordinates": [ -98.483598999799995, 37.015142000099999 ] } },
{ "type": "Feature", "properties": { "name": "Kansas Medical Center", "city": "Andover", "state": "KS", "long": -97.147354126300002, "lat": 37.724361419499999 }, "geometry": { "type": "Point", "coordinates": [ -97.147354126300002, 37.724361419499999 ] } },
{ "type": "Feature", "properties": { "name": "Wamego Health Center", "city": "Wamego", "state": "KS", "long": -96.319086026799994, "lat": 39.204918958599997 }, "geometry": { "type": "Point", "coordinates": [ -96.319086026799994, 39.204918958599997 ] } },
{ "type": "Feature", "properties": { "name": "South Central Kansas Medical Center", "city": "Arkansas City", "state": "KS", "long": -97.038642448600001, "lat": 37.133044628299999 }, "geometry": { "type": "Point", "coordinates": [ -97.038642448600001, 37.133044628299999 ] } },
{ "type": "Feature", "properties": { "name": "Dwight D Eisenhower Veterans Affairs Medical Center", "city": "Leavenworth", "state": "KS", "long": -94.896592966900002, "lat": 39.2824130013 }, "geometry": { "type": "Point", "coordinates": [ -94.896592966900002, 39.2824130013 ] } },
{ "type": "Feature", "properties": { "name": "Russell Regional Hospital", "city": "Russell", "state": "KS", "long": -98.859575092900002, "lat": 38.882660759300002 }, "geometry": { "type": "Point", "coordinates": [ -98.859575092900002, 38.882660759300002 ] } },
{ "type": "Feature", "properties": { "name": "Saint Catherine Hospital", "city": "Garden City", "state": "KS", "long": -100.86856842100001, "lat": 37.969772338699997 }, "geometry": { "type": "Point", "coordinates": [ -100.868568421, 37.969772338699997 ] } },
{ "type": "Feature", "properties": { "name": "Menorah Medical Center", "city": "Overland Park", "state": "KS", "long": -94.652049999599996, "lat": 38.910540000300003 }, "geometry": { "type": "Point", "coordinates": [ -94.652049999599996, 38.910540000300003 ] } },
{ "type": "Feature", "properties": { "name": "Kansas City Orthopaedic Institute", "city": "Leawood", "state": "KS", "long": -94.628257751099994, "lat": 38.926681518899997 }, "geometry": { "type": "Point", "coordinates": [ -94.628257751099994, 38.926681518899997 ] } },
{ "type": "Feature", "properties": { "name": "Pratt Regional Medical Center", "city": "Pratt", "state": "KS", "long": -98.729203999700005, "lat": 37.644589000099998 }, "geometry": { "type": "Point", "coordinates": [ -98.729203999700005, 37.644589000099998 ] } },
{ "type": "Feature", "properties": { "name": "Grisell Memorial Hospital", "city": "Ransom", "state": "KS", "long": -99.931129000200002, "lat": 38.635989999499998 }, "geometry": { "type": "Point", "coordinates": [ -99.931129000200002, 38.635989999499998 ] } },
{ "type": "Feature", "properties": { "name": "Coffey County Hospital", "city": "Burlington", "state": "KS", "long": -95.737673999600005, "lat": 38.202296000399997 }, "geometry": { "type": "Point", "coordinates": [ -95.737673999600005, 38.202296000399997 ] } },
{ "type": "Feature", "properties": { "name": "Jewell County Hospital", "city": "Mankato", "state": "KS", "long": -98.199890136700006, "lat": 39.78635025 }, "geometry": { "type": "Point", "coordinates": [ -98.199890136700006, 39.78635025 ] } },
{ "type": "Feature", "properties": { "name": "F W Huston Medical Center", "city": "Winchester", "state": "KS", "long": -95.270133000399994, "lat": 39.325957000099997 }, "geometry": { "type": "Point", "coordinates": [ -95.270133000399994, 39.325957000099997 ] } },
{ "type": "Feature", "properties": { "name": "Olathe Medical Center", "city": "Olathe", "state": "KS", "long": -94.822883606199994, "lat": 38.852413177599999 }, "geometry": { "type": "Point", "coordinates": [ -94.822883606199994, 38.852413177599999 ] } },
{ "type": "Feature", "properties": { "name": "Kingman Healthcare Center", "city": "Kingman", "state": "KS", "long": -98.123313999800004, "lat": 37.6476250001 }, "geometry": { "type": "Point", "coordinates": [ -98.123313999800004, 37.6476250001 ] } },
{ "type": "Feature", "properties": { "name": "Mercy Hospital - Columbus", "city": "Columbus", "state": "KS", "long": -94.843254000499996, "lat": 37.172611999799997 }, "geometry": { "type": "Point", "coordinates": [ -94.843254000499996, 37.172611999799997 ] } },
{ "type": "Feature", "properties": { "name": "Hodgeman County Health Center", "city": "Jetmore", "state": "KS", "long": -99.903313816099995, "lat": 38.083308154299999 }, "geometry": { "type": "Point", "coordinates": [ -99.903313816099995, 38.083308154299999 ] } },
{ "type": "Feature", "properties": { "name": "Mercy Hospital", "city": "Moundridge", "state": "KS", "long": -97.516952440899999, "lat": 38.205314080900003 }, "geometry": { "type": "Point", "coordinates": [ -97.516952440899999, 38.205314080900003 ] } },
{ "type": "Feature", "properties": { "name": "Ellinwood District Hospital", "city": "Ellinwood", "state": "KS", "long": -98.580591000499993, "lat": 38.360351000500003 }, "geometry": { "type": "Point", "coordinates": [ -98.580591000499993, 38.360351000500003 ] } },
{ "type": "Feature", "properties": { "name": "Osborne County Memorial Hospital", "city": "Osborne", "state": "KS", "long": -98.698661000100003, "lat": 39.450493999700001 }, "geometry": { "type": "Point", "coordinates": [ -98.698661000100003, 39.450493999700001 ] } },
{ "type": "Feature", "properties": { "name": "Herington Hospital", "city": "Herington", "state": "KS", "long": -96.942200999899995, "lat": 38.680089999499998 }, "geometry": { "type": "Point", "coordinates": [ -96.942200999899995, 38.680089999499998 ] } },
{ "type": "Feature", "properties": { "name": "Providence Medical Center", "city": "Kansas City", "state": "KS", "long": -94.786744999700005, "lat": 39.126743999600002 }, "geometry": { "type": "Point", "coordinates": [ -94.786744999700005, 39.126743999600002 ] } },
{ "type": "Feature", "properties": { "name": "Rawlins County Health Center", "city": "Atwood", "state": "KS", "long": -101.03843587, "lat": 39.813938641599997 }, "geometry": { "type": "Point", "coordinates": [ -101.03843587, 39.813938641599997 ] } },
{ "type": "Feature", "properties": { "name": "Clara Barton Hospital", "city": "Hoisington", "state": "KS", "long": -98.778587341000005, "lat": 38.522464751999998 }, "geometry": { "type": "Point", "coordinates": [ -98.778587341, 38.522464752 ] } },
{ "type": "Feature", "properties": { "name": "Clay County Medical Center", "city": "Clay Center", "state": "KS", "long": -97.123662877499996, "lat": 39.392195820399998 }, "geometry": { "type": "Point", "coordinates": [ -97.123662877499996, 39.392195820399998 ] } },
{ "type": "Feature", "properties": { "name": "Kansas Rehabilitation Hospital", "city": "Topeka", "state": "KS", "long": -95.694763183999996, "lat": 39.054992676300003 }, "geometry": { "type": "Point", "coordinates": [ -95.694763184, 39.054992676300003 ] } },
{ "type": "Feature", "properties": { "name": "Anthony Medical Center", "city": "Anthony", "state": "KS", "long": -98.017345, "lat": 37.154939999500002 }, "geometry": { "type": "Point", "coordinates": [ -98.017345, 37.154939999500002 ] } },
{ "type": "Feature", "properties": { "name": "Memorial Health System", "city": "Abilene", "state": "KS", "long": -97.205641918699996, "lat": 38.9253584227 }, "geometry": { "type": "Point", "coordinates": [ -97.205641918699996, 38.9253584227 ] } },
{ "type": "Feature", "properties": { "name": "Goodland Regional Medical Center", "city": "Goodland", "state": "KS", "long": -101.714619, "lat": 39.358884999899999 }, "geometry": { "type": "Point", "coordinates": [ -101.714619, 39.358884999899999 ] } },
{ "type": "Feature", "properties": { "name": "McPherson Hospital", "city": "McPherson", "state": "KS", "long": -97.670618891399997, "lat": 38.3789246085 }, "geometry": { "type": "Point", "coordinates": [ -97.670618891399997, 38.3789246085 ] } },
{ "type": "Feature", "properties": { "name": "Graham County Hospital", "city": "Hill City", "state": "KS", "long": -99.8449350004, "lat": 39.372150999600002 }, "geometry": { "type": "Point", "coordinates": [ -99.8449350004, 39.372150999600002 ] } },
{ "type": "Feature", "properties": { "name": "Satanta District Hospital", "city": "Satanta", "state": "KS", "long": -100.986595, "lat": 37.437084000399999 }, "geometry": { "type": "Point", "coordinates": [ -100.986595, 37.437084000399999 ] } },
{ "type": "Feature", "properties": { "name": "Coffeyville Regional Medical Center", "city": "Coffeyville", "state": "KS", "long": -95.639343261199997, "lat": 37.041027068699997 }, "geometry": { "type": "Point", "coordinates": [ -95.639343261199997, 37.041027068699997 ] } },
{ "type": "Feature", "properties": { "name": "Republic County Hospital", "city": "Belleville", "state": "KS", "long": -97.637343999899997, "lat": 39.8173069996 }, "geometry": { "type": "Point", "coordinates": [ -97.637343999899997, 39.8173069996 ] } },
{ "type": "Feature", "properties": { "name": "Ransom Memorial Hospital", "city": "Ottawa", "state": "KS", "long": -95.267601013499998, "lat": 38.596324920500003 }, "geometry": { "type": "Point", "coordinates": [ -95.267601013499998, 38.596324920500003 ] } },
{ "type": "Feature", "properties": { "name": "The University of Kansas Health System Saint Francis Campus", "city": "Topeka", "state": "KS", "long": -95.696014000100007, "lat": 39.056409000400002 }, "geometry": { "type": "Point", "coordinates": [ -95.696014000100007, 39.056409000400002 ] } },
{ "type": "Feature", "properties": { "name": "Overland Park Regional Medical Center", "city": "Overland Park", "state": "KS", "long": -94.726288, "lat": 38.937444999500002 }, "geometry": { "type": "Point", "coordinates": [ -94.726288, 38.937444999500002 ] } },
{ "type": "Feature", "properties": { "name": "Kansas Heart Hospital", "city": "Wichita", "state": "KS", "long": -97.227512611600005, "lat": 37.750061099500002 }, "geometry": { "type": "Point", "coordinates": [ -97.227512611600005, 37.750061099500002 ] } },
{ "type": "Feature", "properties": { "name": "Morris County Hospital", "city": "Council Grove", "state": "KS", "long": -96.499414999600006, "lat": 38.665825000300003 }, "geometry": { "type": "Point", "coordinates": [ -96.499414999600006, 38.665825000300003 ] } },
{ "type": "Feature", "properties": { "name": "Girard Medical Center", "city": "Girard", "state": "KS", "long": -94.857905999799996, "lat": 37.514646000299997 }, "geometry": { "type": "Point", "coordinates": [ -94.857905999799996, 37.514646000299997 ] } },
{ "type": "Feature", "properties": { "name": "Ascension Via Christi Rehabilitation Hospital", "city": "Wichita", "state": "KS", "long": -97.246063999699999, "lat": 37.703858000099999 }, "geometry": { "type": "Point", "coordinates": [ -97.246063999699999, 37.703858000099999 ] } },
{ "type": "Feature", "properties": { "name": "Ascension Via Christi Saint Francis Hospital", "city": "Wichita", "state": "KS", "long": -97.332324000499995, "lat": 37.699957999699997 }, "geometry": { "type": "Point", "coordinates": [ -97.332324000499995, 37.699957999699997 ] } },
{ "type": "Feature", "properties": { "name": "Rice County District Hospital", "city": "Lyons", "state": "KS", "long": -98.2166334984, "lat": 38.3414226493 }, "geometry": { "type": "Point", "coordinates": [ -98.2166334984, 38.3414226493 ] } },
{ "type": "Feature", "properties": { "name": "Comanche County Hospital", "city": "Coldwater", "state": "KS", "long": -99.332711000299994, "lat": 37.268072999899999 }, "geometry": { "type": "Point", "coordinates": [ -99.332711000299994, 37.268072999899999 ] } },
{ "type": "Feature", "properties": { "name": "Saint John Hospital", "city": "Leavenworth", "state": "KS", "long": -94.905903853699996, "lat": 39.282009162199998 }, "geometry": { "type": "Point", "coordinates": [ -94.905903853699996, 39.282009162199998 ] } },
{ "type": "Feature", "properties": { "name": "Ness County Hospital", "city": "Ness City", "state": "KS", "long": -99.9016272012, "lat": 38.458287310099998 }, "geometry": { "type": "Point", "coordinates": [ -99.9016272012, 38.458287310099998 ] } },
{ "type": "Feature", "properties": { "name": "Heartland Surgical Specialty Hospital", "city": "Overland Park", "state": "KS", "long": -94.651978438200004, "lat": 38.932974950899997 }, "geometry": { "type": "Point", "coordinates": [ -94.651978438200004, 38.932974950899997 ] } },
{ "type": "Feature", "properties": { "name": "Centura - Bob Wilson Memorial Hospital", "city": "Ulysses", "state": "KS", "long": -101.358704567, "lat": 37.5846244492 }, "geometry": { "type": "Point", "coordinates": [ -101.358704567, 37.5846244492 ] } },
{ "type": "Feature", "properties": { "name": "Salina Surgical Hospital", "city": "Salina", "state": "KS", "long": -97.608461352800006, "lat": 38.833728121199997 }, "geometry": { "type": "Point", "coordinates": [ -97.608461352800006, 38.833728121199997 ] } },
{ "type": "Feature", "properties": { "name": "Rush County Memorial Hospital", "city": "La Crosse", "state": "KS", "long": -99.317020999600004, "lat": 38.530583999800001 }, "geometry": { "type": "Point", "coordinates": [ -99.317020999600004, 38.530583999800001 ] } },
{ "type": "Feature", "properties": { "name": "Salina Regional Health Center", "city": "Salina", "state": "KS", "long": -97.610282897999994, "lat": 38.833503723200003 }, "geometry": { "type": "Point", "coordinates": [ -97.610282898, 38.833503723200003 ] } },
{ "type": "Feature", "properties": { "name": "Southwest Medical Center", "city": "Liberal", "state": "KS", "long": -100.926783001, "lat": 37.056181999899998 }, "geometry": { "type": "Point", "coordinates": [ -100.926783001, 37.056181999899998 ] } },
{ "type": "Feature", "properties": { "name": "Children's Mercy Hospital Kansas", "city": "Overland Park", "state": "KS", "long": -94.652932583999998, "lat": 38.929740281599997 }, "geometry": { "type": "Point", "coordinates": [ -94.652932584, 38.929740281599997 ] } },
{ "type": "Feature", "properties": { "name": "Morton County Hospital", "city": "Elkhart", "state": "KS", "long": -101.905366, "lat": 37.00197 }, "geometry": { "type": "Point", "coordinates": [ -101.905366, 37.00197 ] } },
{ "type": "Feature", "properties": { "name": "Neosho Memorial Regional Medical Center", "city": "Chanute", "state": "KS", "long": -95.472091674799998, "lat": 37.675235748600002 }, "geometry": { "type": "Point", "coordinates": [ -95.472091674799998, 37.675235748600002 ] } },
{ "type": "Feature", "properties": { "name": "Robert J Dole Veterans Affairs Medical Center", "city": "Wichita", "state": "KS", "long": -97.274770974800006, "lat": 37.6813136572 }, "geometry": { "type": "Point", "coordinates": [ -97.274770974800006, 37.6813136572 ] } },
{ "type": "Feature", "properties": { "name": "Mitchell County Hospital Health Systems", "city": "Beloit", "state": "KS", "long": -98.114385000200002, "lat": 39.467280000300001 }, "geometry": { "type": "Point", "coordinates": [ -98.114385000200002, 39.467280000300001 ] } },
{ "type": "Feature", "properties": { "name": "Via Christie Hospital", "city": "Manhattan", "state": "KS", "long": -96.599151610899995, "lat": 39.201316833900002 }, "geometry": { "type": "Point", "coordinates": [ -96.599151610899995, 39.201316833900002 ] } },
{ "type": "Feature", "properties": { "name": "Ottawa County Health Center", "city": "Minneapolis", "state": "KS", "long": -97.703642287799994, "lat": 39.129590016000002 }, "geometry": { "type": "Point", "coordinates": [ -97.703642287799994, 39.129590016 ] } },
{ "type": "Feature", "properties": { "name": "The Institute for Advanced Bariatric Surgery", "city": "Lenexa", "state": "KS", "long": -94.769009468500002, "lat": 38.924423942799997 }, "geometry": { "type": "Point", "coordinates": [ -94.769009468500002, 38.924423942799997 ] } },
{ "type": "Feature", "properties": { "name": "Wilson Medical Center", "city": "Neodesha", "state": "KS", "long": -95.708384, "lat": 37.409622000500001 }, "geometry": { "type": "Point", "coordinates": [ -95.708384, 37.409622000500001 ] } },
{ "type": "Feature", "properties": { "name": "Kansas Surgery and Recovery Center", "city": "Wichita", "state": "KS", "long": -97.225087541700006, "lat": 37.733101304100003 }, "geometry": { "type": "Point", "coordinates": [ -97.225087541700006, 37.733101304100003 ] } },
{ "type": "Feature", "properties": { "name": "Atchison Hospital", "city": "Atchison", "state": "KS", "long": -95.128547667999996, "lat": 39.536170959800003 }, "geometry": { "type": "Point", "coordinates": [ -95.128547668, 39.536170959800003 ] } },
{ "type": "Feature", "properties": { "name": "Rooks County Health Center", "city": "Plainville", "state": "KS", "long": -99.296509591000003, "lat": 39.2475717839 }, "geometry": { "type": "Point", "coordinates": [ -99.296509591, 39.2475717839 ] } },
{ "type": "Feature", "properties": { "name": "Geary Community Hospital", "city": "Junction City", "state": "KS", "long": -96.850952148299996, "lat": 39.013984680100002 }, "geometry": { "type": "Point", "coordinates": [ -96.850952148299996, 39.013984680100002 ] } },
{ "type": "Feature", "properties": { "name": "Fredonia Regional Hospital", "city": "Fredonia", "state": "KS", "long": -95.814085007000003, "lat": 37.534233536899997 }, "geometry": { "type": "Point", "coordinates": [ -95.814085007, 37.534233536899997 ] } },
{ "type": "Feature", "properties": { "name": "Community Healthcare System - Onaga", "city": "Onaga", "state": "KS", "long": -96.171607971399993, "lat": 39.495944977199997 }, "geometry": { "type": "Point", "coordinates": [ -96.171607971399993, 39.495944977199997 ] } },
{ "type": "Feature", "properties": { "name": "Logan County Hospital", "city": "Oakley", "state": "KS", "long": -100.862892888, "lat": 39.127147356899997 }, "geometry": { "type": "Point", "coordinates": [ -100.862892888, 39.127147356899997 ] } },
{ "type": "Feature", "properties": { "name": "Scott County Hospital", "city": "Scott City", "state": "KS", "long": -100.90371704099999, "lat": 38.466995239299997 }, "geometry": { "type": "Point", "coordinates": [ -100.903717041, 38.466995239299997 ] } },
{ "type": "Feature", "properties": { "name": "Hamilton County Hospital", "city": "Syracuse", "state": "KS", "long": -101.742408, "lat": 37.984743000199998 }, "geometry": { "type": "Point", "coordinates": [ -101.742408, 37.984743000199998 ] } },
{ "type": "Feature", "properties": { "name": "Via Christi Hospital Saint Joseph", "city": "Wichita", "state": "KS", "long": -97.293106079099999, "lat": 37.666141509900001 }, "geometry": { "type": "Point", "coordinates": [ -97.293106079099999, 37.666141509900001 ] } },
{ "type": "Feature", "properties": { "name": "MidAmerica Rehabilitation Hospital", "city": "Overland Park", "state": "KS", "long": -94.651357000100006, "lat": 38.9289240003 }, "geometry": { "type": "Point", "coordinates": [ -94.651357000100006, 38.9289240003 ] } },
{ "type": "Feature", "properties": { "name": "Kearny County Hospital", "city": "Lakin", "state": "KS", "long": -101.251671, "lat": 37.946706000399999 }, "geometry": { "type": "Point", "coordinates": [ -101.251671, 37.946706000399999 ] } },
{ "type": "Feature", "properties": { "name": "Saint Luke's South Hospital", "city": "Overland Park", "state": "KS", "long": -94.668964147300002, "lat": 38.903975224299998 }, "geometry": { "type": "Point", "coordinates": [ -94.668964147300002, 38.903975224299998 ] } },
{ "type": "Feature", "properties": { "name": "Shawnee Mission Medical Center", "city": "Merriam", "state": "KS", "long": -94.691266000400006, "lat": 38.995661999799999 }, "geometry": { "type": "Point", "coordinates": [ -94.691266000400006, 38.995661999799999 ] } },
{ "type": "Feature", "properties": { "name": "Decatur Health Systems Hospital", "city": "Oberlin", "state": "KS", "long": -100.538398929, "lat": 39.815800319600001 }, "geometry": { "type": "Point", "coordinates": [ -100.538398929, 39.815800319600001 ] } },
{ "type": "Feature", "properties": { "name": "Miami County Medical Center", "city": "Paola", "state": "KS", "long": -94.849098205600001, "lat": 38.569274902300002 }, "geometry": { "type": "Point", "coordinates": [ -94.849098205600001, 38.569274902300002 ] } },
{ "type": "Feature", "properties": { "name": "Hillsboro Community Hospital", "city": "Hillsboro", "state": "KS", "long": -97.1887278122, "lat": 38.3618702017 }, "geometry": { "type": "Point", "coordinates": [ -97.1887278122, 38.3618702017 ] } },
{ "type": "Feature", "properties": { "name": "Wesley Medical Center", "city": "Wichita", "state": "KS", "long": -97.298186119500002, "lat": 37.695243763400001 }, "geometry": { "type": "Point", "coordinates": [ -97.298186119500002, 37.695243763400001 ] } },
{ "type": "Feature", "properties": { "name": "Washington County Hospital", "city": "Washington", "state": "KS", "long": -97.045866000199993, "lat": 39.818127000200001 }, "geometry": { "type": "Point", "coordinates": [ -97.045866000199993, 39.818127000200001 ] } },
{ "type": "Feature", "properties": { "name": "Norton County Hospital", "city": "Norton", "state": "KS", "long": -99.888108372700003, "lat": 39.837961084100002 }, "geometry": { "type": "Point", "coordinates": [ -99.888108372700003, 39.837961084100002 ] } },
{ "type": "Feature", "properties": { "name": "Saint Luke Hospital", "city": "Marion", "state": "KS", "long": -97.010360841700006, "lat": 38.342846891299999 }, "geometry": { "type": "Point", "coordinates": [ -97.010360841700006, 38.342846891299999 ] } },
{ "type": "Feature", "properties": { "name": "Greeley County Hospital", "city": "Tribune", "state": "KS", "long": -101.749406, "lat": 38.4703879996 }, "geometry": { "type": "Point", "coordinates": [ -101.749406, 38.4703879996 ] } },
{ "type": "Feature", "properties": { "name": "Susan B Allen Memorial Hospital", "city": "El Dorado", "state": "KS", "long": -96.858528137700006, "lat": 37.818424224499999 }, "geometry": { "type": "Point", "coordinates": [ -96.858528137700006, 37.818424224499999 ] } },
{ "type": "Feature", "properties": { "name": "Cheyenne County Hospital", "city": "Saint Francis", "state": "KS", "long": -101.803352, "lat": 39.771336000300003 }, "geometry": { "type": "Point", "coordinates": [ -101.803352, 39.771336000300003 ] } },
{ "type": "Feature", "properties": { "name": "Phillips County Hospital", "city": "Phillipsburg", "state": "KS", "long": -99.313669435500003, "lat": 39.755279800300002 }, "geometry": { "type": "Point", "coordinates": [ -99.313669435500003, 39.755279800300002 ] } },
{ "type": "Feature", "properties": { "name": "Community Memorial Healthcare Hospital", "city": "Marysville", "state": "KS", "long": -96.635428999599995, "lat": 39.848579000199997 }, "geometry": { "type": "Point", "coordinates": [ -96.635428999599995, 39.848579000199997 ] } },
{ "type": "Feature", "properties": { "name": "Meadowbrook Rehabilitation Hospital", "city": "Gardner", "state": "KS", "long": -94.937759399399994, "lat": 38.810039520099998 }, "geometry": { "type": "Point", "coordinates": [ -94.937759399399994, 38.810039520099998 ] } },
{ "type": "Feature", "properties": { "name": "Trego County - Lemke Memorial Hospital", "city": "WaKeeney", "state": "KS", "long": -99.871048000100004, "lat": 39.027804000400003 }, "geometry": { "type": "Point", "coordinates": [ -99.871048000100004, 39.027804000400003 ] } },
{ "type": "Feature", "properties": { "name": "Colmery - O'Neil Veterans Affairs Medical Center", "city": "Topeka", "state": "KS", "long": -95.7228000001, "lat": 39.026170000100002 }, "geometry": { "type": "Point", "coordinates": [ -95.722800000099994, 39.026170000100002 ] } },
{ "type": "Feature", "properties": { "name": "Wesley Woodlawn Hospital", "city": "Wichita", "state": "KS", "long": -97.2606689996, "lat": 37.731245999599999 }, "geometry": { "type": "Point", "coordinates": [ -97.2606689996, 37.731245999599999 ] } },
{ "type": "Feature", "properties": { "name": "Newman Regional Health", "city": "Emporia", "state": "KS", "long": -96.195521911200004, "lat": 38.411567070700002 }, "geometry": { "type": "Point", "coordinates": [ -96.195521911200004, 38.411567070700002 ] } },
{ "type": "Feature", "properties": { "name": "Lane County Hospital", "city": "Dighton", "state": "KS", "long": -100.46917, "lat": 38.4801669995 }, "geometry": { "type": "Point", "coordinates": [ -100.46917, 38.4801669995 ] } },
{ "type": "Feature", "properties": { "name": "Ellsworth County Medical Center", "city": "Ellsworth", "state": "KS", "long": -98.219729999600005, "lat": 38.742705 }, "geometry": { "type": "Point", "coordinates": [ -98.219729999600005, 38.742705 ] } },
{ "type": "Feature", "properties": { "name": "Ashland Health Center", "city": "Ashland", "state": "KS", "long": -99.779945734999998, "lat": 37.190185688699998 }, "geometry": { "type": "Point", "coordinates": [ -99.779945735, 37.190185688699998 ] } },
{ "type": "Feature", "properties": { "name": "Smith County Memorial Hospital", "city": "Smith Center", "state": "KS", "long": -98.771917838199997, "lat": 39.783418795499998 }, "geometry": { "type": "Point", "coordinates": [ -98.771917838199997, 39.783418795499998 ] } },
{ "type": "Feature", "properties": { "name": "Citizens Medical Center", "city": "Colby", "state": "KS", "long": -101.044395447, "lat": 39.378688812100002 }, "geometry": { "type": "Point", "coordinates": [ -101.044395447, 39.378688812100002 ] } },
{ "type": "Feature", "properties": { "name": "Minneola District Hospital", "city": "Minneola", "state": "KS", "long": -100.01304600100001, "lat": 37.441532 }, "geometry": { "type": "Point", "coordinates": [ -100.013046001, 37.441532 ] } },
{ "type": "Feature", "properties": { "name": "Lindsborg Community Hospital", "city": "Lindsborg", "state": "KS", "long": -97.683440999699997, "lat": 38.572883999699997 }, "geometry": { "type": "Point", "coordinates": [ -97.683440999699997, 38.572883999699997 ] } },
{ "type": "Feature", "properties": { "name": "Sheridan County Health Complex", "city": "Hoxie", "state": "KS", "long": -100.431739, "lat": 39.354395 }, "geometry": { "type": "Point", "coordinates": [ -100.431739, 39.354395 ] } },
{ "type": "Feature", "properties": { "name": "Hiawatha Community Hospital", "city": "Hiawatha", "state": "KS", "long": -95.530786000199996, "lat": 39.852451999700001 }, "geometry": { "type": "Point", "coordinates": [ -95.530786000199996, 39.852451999700001 ] } },
{ "type": "Feature", "properties": { "name": "Allen County Regional Hospital", "city": "Iola", "state": "KS", "long": -95.392142999900003, "lat": 37.948787999799997 }, "geometry": { "type": "Point", "coordinates": [ -95.392142999900003, 37.948787999799997 ] } },
{ "type": "Feature", "properties": { "name": "Edwards County Medical Center", "city": "Kinsley", "state": "KS", "long": -99.420113999799995, "lat": 37.921227000099996 }, "geometry": { "type": "Point", "coordinates": [ -99.420113999799995, 37.921227000099996 ] } },
{ "type": "Feature", "properties": { "name": "Greenwood County Hospital", "city": "Eureka", "state": "KS", "long": -96.293617999700004, "lat": 37.835659 }, "geometry": { "type": "Point", "coordinates": [ -96.293617999700004, 37.835659 ] } },
{ "type": "Feature", "properties": { "name": "Kansas Spine and Specialty Hospital", "city": "Wichita", "state": "KS", "long": -97.227328999500003, "lat": 37.743545000499999 }, "geometry": { "type": "Point", "coordinates": [ -97.227328999500003, 37.743545000499999 ] } },
{ "type": "Feature", "properties": { "name": "Stevens County Hospital", "city": "Hugoton", "state": "KS", "long": -101.349275, "lat": 37.171246999700003 }, "geometry": { "type": "Point", "coordinates": [ -101.349275, 37.171246999700003 ] } },
{ "type": "Feature", "properties": { "name": "Hays Medical Center", "city": "Hays", "state": "KS", "long": -99.296249389799996, "lat": 38.880584716400001 }, "geometry": { "type": "Point", "coordinates": [ -99.296249389799996, 38.880584716400001 ] } },
{ "type": "Feature", "properties": { "name": "Gove County Medical Center", "city": "Quinter", "state": "KS", "long": -100.24064183199999, "lat": 39.0675636446 }, "geometry": { "type": "Point", "coordinates": [ -100.240641832, 39.0675636446 ] } },
{ "type": "Feature", "properties": { "name": "Sumner County Hospital", "city": "Caldwell", "state": "KS", "long": -97.610229492100004, "lat": 37.026180267199997 }, "geometry": { "type": "Point", "coordinates": [ -97.610229492100004, 37.026180267199997 ] } },
{ "type": "Feature", "properties": { "name": "Meade District Hospital", "city": "Meade", "state": "KS", "long": -100.33403, "lat": 37.2866100002 }, "geometry": { "type": "Point", "coordinates": [ -100.33403, 37.2866100002 ] } },
{ "type": "Feature", "properties": { "name": "Doctors Hospital", "city": "Leawood", "state": "KS", "long": -94.643722534399998, "lat": 38.927059173300002 }, "geometry": { "type": "Point", "coordinates": [ -94.643722534399998, 38.927059173300002 ] } },
{ "type": "Feature", "properties": { "name": "Stormont Vail Hospital", "city": "Topeka", "state": "KS", "long": -95.696418762299999, "lat": 39.052055359000001 }, "geometry": { "type": "Point", "coordinates": [ -95.696418762299999, 39.052055359 ] } },
{ "type": "Feature", "properties": { "name": "Western Plains Medical Complex", "city": "Dodge City", "state": "KS", "long": -100.017365, "lat": 37.786278000499998 }, "geometry": { "type": "Point", "coordinates": [ -100.017365, 37.786278000499998 ] } },
{ "type": "Feature", "properties": { "name": "Anderson County Hospital", "city": "Garnett", "state": "KS", "long": -95.251630754199994, "lat": 38.279684197199998 }, "geometry": { "type": "Point", "coordinates": [ -95.251630754199994, 38.279684197199998 ] } },
{ "type": "Feature", "properties": { "name": "Lincoln County Hospital", "city": "Lincoln", "state": "KS", "long": -98.144018054300005, "lat": 39.045415159000001 }, "geometry": { "type": "Point", "coordinates": [ -98.144018054300005, 39.045415159 ] } },
{ "type": "Feature", "properties": { "name": "University of Kansas Medical Center", "city": "Kansas City", "state": "KS", "long": -94.609226019700003, "lat": 39.055863360499998 }, "geometry": { "type": "Point", "coordinates": [ -94.609226019700003, 39.055863360499998 ] } },
{ "type": "Feature", "properties": { "name": "Via Christi Hospital", "city": "Pittsburg", "state": "KS", "long": -94.684054255099994, "lat": 37.380328653 }, "geometry": { "type": "Point", "coordinates": [ -94.684054255099994, 37.380328653 ] } },
{ "type": "Feature", "properties": { "name": "Lawrence Memorial Hospital", "city": "Lawrence", "state": "KS", "long": -95.248512268400006, "lat": 38.978900909499998 }, "geometry": { "type": "Point", "coordinates": [ -95.248512268400006, 38.978900909499998 ] } },
{ "type": "Feature", "properties": { "name": "William Newton Hospital", "city": "Winfield", "state": "KS", "long": -96.9820022583, "lat": 37.2452163691 }, "geometry": { "type": "Point", "coordinates": [ -96.9820022583, 37.2452163691 ] } },
{ "type": "Feature", "properties": { "name": "Holton Community Hospital", "city": "Holton", "state": "KS", "long": -95.751680000099995, "lat": 39.480079999899999 }, "geometry": { "type": "Point", "coordinates": [ -95.751680000099995, 39.480079999899999 ] } },
{ "type": "Feature", "properties": { "name": "Cloud County Health Center", "city": "Concordia", "state": "KS", "long": -97.673599243300004, "lat": 39.565422057799999 }, "geometry": { "type": "Point", "coordinates": [ -97.673599243300004, 39.565422057799999 ] } },
{ "type": "Feature", "properties": { "name": "Mercy Hospital - Fort Scott", "city": "Fort Scott", "state": "KS", "long": -94.711341858200001, "lat": 37.806106567100002 }, "geometry": { "type": "Point", "coordinates": [ -94.711341858200001, 37.806106567100002 ] } },
{ "type": "Feature", "properties": { "name": "Harper Hospital District Five", "city": "Harper", "state": "KS", "long": -98.033432007100004, "lat": 37.284378051399997 }, "geometry": { "type": "Point", "coordinates": [ -98.033432007100004, 37.284378051399997 ] } },
{ "type": "Feature", "properties": { "name": "Stafford County Hospital", "city": "Stafford", "state": "KS", "long": -98.595474000300001, "lat": 37.956659000199998 }, "geometry": { "type": "Point", "coordinates": [ -98.595474000300001, 37.956659000199998 ] } },
{ "type": "Feature", "properties": { "name": "Newton Medical Center", "city": "Newton", "state": "KS", "long": -97.333196000100003, "lat": 38.024180000299999 }, "geometry": { "type": "Point", "coordinates": [ -97.333196000100003, 38.024180000299999 ] } },
{ "type": "Feature", "properties": { "name": "Sedan City Hospital", "city": "Sedan", "state": "KS", "long": -96.188947000100001, "lat": 37.133920999899999 }, "geometry": { "type": "Point", "coordinates": [ -96.188947000100001, 37.133920999899999 ] } },
{ "type": "Feature", "properties": { "name": "Wesley Rehabilitation Hospital", "city": "Wichita", "state": "KS", "long": -97.438903808800006, "lat": 37.7096214297 }, "geometry": { "type": "Point", "coordinates": [ -97.438903808800006, 37.7096214297 ] } },
{ "type": "Feature", "properties": { "name": "Nemaha Valley Community Hospital", "city": "Seneca", "state": "KS", "long": -96.078118000299995, "lat": 39.8370850003 }, "geometry": { "type": "Point", "coordinates": [ -96.078118000299995, 39.8370850003 ] } },
{ "type": "Feature", "properties": { "name": "Sabetha Community Hospital", "city": "Sabetha", "state": "KS", "long": -95.808103689700005, "lat": 39.898917540299998 }, "geometry": { "type": "Point", "coordinates": [ -95.808103689700005, 39.898917540299998 ] } },
{ "type": "Feature", "properties": { "name": "Stanton County Hospital", "city": "Johnson", "state": "KS", "long": -101.75009156900001, "lat": 37.574088466799999 }, "geometry": { "type": "Point", "coordinates": [ -101.750091569, 37.574088466799999 ] } },
{ "type": "Feature", "properties": { "name": "Hanover Hospital", "city": "Hanover", "state": "KS", "long": -96.8752151634, "lat": 39.891081259800004 }, "geometry": { "type": "Point", "coordinates": [ -96.8752151634, 39.891081259800004 ] } },
{ "type": "Feature", "properties": { "name": "Via Christi Clinic", "city": "Manhattan", "state": "KS", "long": -96.590217589900007, "lat": 39.191810607900003 }, "geometry": { "type": "Point", "coordinates": [ -96.590217589900007, 39.191810607900003 ] } },
{ "type": "Feature", "properties": { "name": "Ascension Via Christi Behavioral Health Center", "city": "Wichita", "state": "KS", "long": -97.292614895599996, "lat": 37.665830471299998 }, "geometry": { "type": "Point", "coordinates": [ -97.292614895599996, 37.665830471299998 ] } },
{ "type": "Feature", "properties": { "name": "Great Bend Regional Hospital", "city": "Great Bend", "state": "KS", "long": -98.790466308099994, "lat": 38.356380462300002 }, "geometry": { "type": "Point", "coordinates": [ -98.790466308099994, 38.356380462300002 ] } },
{ "type": "Feature", "properties": { "name": "Hutchinson Regional Medical Center", "city": "Hutchinson", "state": "KS", "long": -97.892038999500002, "lat": 38.077456999500001 }, "geometry": { "type": "Point", "coordinates": [ -97.892038999500002, 38.077456999500001 ] } },
{ "type": "Feature", "properties": { "name": "Shawnee Mission Health - Prairie Star", "city": "Lenexa", "state": "KS", "long": -94.856855794699996, "lat": 38.9548174428 }, "geometry": { "type": "Point", "coordinates": [ -94.856855794699996, 38.9548174428 ] } },
{ "type": "Feature", "properties": { "name": "Labette Health Hospital", "city": "Parsons", "state": "KS", "long": -95.264543111999998, "lat": 37.321105045800003 }, "geometry": { "type": "Point", "coordinates": [ -95.264543112, 37.321105045800003 ] } },
{ "type": "Feature", "properties": { "name": "Medicine Lodge Memorial Hospital", "city": "Medicine Lodge", "state": "KS", "long": -98.577342607800006, "lat": 37.289418750599999 }, "geometry": { "type": "Point", "coordinates": [ -98.577342607800006, 37.289418750599999 ] } },
{ "type": "Feature", "properties": { "name": "Irwin Army Community Hospital", "city": "Fort Riley", "state": "KS", "long": -96.768319000399998, "lat": 39.083291000499997 }, "geometry": { "type": "Point", "coordinates": [ -96.768319000399998, 39.083291000499997 ] } },
{ "type": "Feature", "properties": { "name": "Prairie View Inpatient Psychiatric Hospital", "city": "Newton", "state": "KS", "long": -97.313709272699995, "lat": 38.041428849100001 }, "geometry": { "type": "Point", "coordinates": [ -97.313709272699995, 38.041428849100001 ] } },
{ "type": "Feature", "properties": { "name": "Kiowa County Memorial Hospital", "city": "Greensburg", "state": "KS", "long": -99.301509000300001, "lat": 37.605571000099999 }, "geometry": { "type": "Point", "coordinates": [ -99.301509000300001, 37.605571000099999 ] } },
{ "type": "Feature", "properties": { "name": "Larned State Hospital", "city": "Larned", "state": "KS", "long": -99.150930384700004, "lat": 38.171500125800002 }, "geometry": { "type": "Point", "coordinates": [ -99.150930384700004, 38.171500125800002 ] } }
]
}
